,City,Lat,Lng,Max Temp,Humidity,Cloudiness,Wind Speed,Country,Date
0,yellowknife,62.46,-114.35,18.0,92,75,10.29,CA,1607376601
1,narsaq,60.92,-46.05,21.2,53,40,3.36,GL,1607376586
2,leningradskiy,69.38,178.42,7.68,86,69,3.74,RU,1607376820
3,ushuaia,-54.8,-68.3,50.0,76,75,13.87,AR,1607376491
4,castro,-24.79,-50.01,66.31,93,76,5.44,BR,1607376571
5,svetlogorsk,52.63,29.73,20.57,89,0,13.04,BY,1607376815
6,half moon bay,37.46,-122.43,71.6,19,1,26.4,US,1607377105
7,aksu,41.12,80.26,19.63,94,86,1.3,CN,1607377105
8,airai,-8.93,125.41,63.99,98,99,2.15,TL,1607377105
9,khairagarh,26.95,77.82,63.45,38,0,1.05,IN,1607377106
10,vaini,-21.2,-175.2,82.4,78,75,11.41,TO,1607376657
11,vitim,59.45,112.56,13.95,94,100,10.13,RU,1607377106
12,concordia,-31.39,-58.02,79.0,44,20,6.93,AR,1607377106
13,nador,35.17,-2.93,60.8,72,40,9.17,MA,1607377058
14,namibe,-15.2,12.15,68.4,67,17,7.05,AO,1607377107
15,berlevag,70.86,29.09,28.4,79,75,16.11,NO,1607377024
16,genhe,50.78,121.52,-6.3,90,39,3.31,CN,1607377107
17,kapaa,22.08,-159.32,82.4,69,40,13.87,US,1607376911
18,loutra,39.06,26.55,55.4,87,20,6.93,GR,1607377108
19,hermanus,-34.42,19.23,63.0,92,75,5.59,ZA,1607376625
20,shubarkuduk,49.14,56.49,6.76,88,0,3.11,KZ,1607377108
21,guerrero negro,27.98,-114.06,76.62,18,0,4.36,MX,1607376560
22,mitsamiouli,-11.38,43.28,80.85,70,21,5.57,KM,1607377109
23,saint-augustin,51.23,-58.65,32.97,93,100,14.7,CA,1607376672
24,rikitea,-23.12,-134.97,75.36,80,0,15.61,PF,1607376554
25,vardo,70.37,31.11,23.0,85,40,12.75,NO,1607377109
26,port-gentil,-0.72,8.78,75.2,100,75,12.75,GA,1607377109
27,cape town,-33.93,18.42,69.01,77,0,10.29,ZA,1607376524
28,amahai,-3.33,128.92,84.0,90,97,2.98,ID,1607377110
29,jamestown,42.1,-79.24,30.0,73,90,6.93,US,1607376442
30,abu samrah,35.3,37.18,54.64,74,40,4.41,SY,1607376857
31,carmen,18.63,-91.83,75.2,69,75,9.17,MX,1607376951
32,hobart,-42.88,147.33,53.01,50,75,10.29,AU,1607376530
33,hilo,19.73,-155.09,80.6,69,75,8.05,US,1607376701
34,clyde river,70.47,-68.59,6.8,92,90,3.36,CA,1607376633
35,torbay,47.67,-52.73,44.01,100,20,5.82,CA,1607376915
36,port alfred,-33.59,26.89,71.42,85,28,28.05,ZA,1607376572
37,oranjemund,-28.55,16.43,63.7,88,0,9.82,NA,1607377111
38,roblin,51.23,-101.36,31.41,96,100,6.67,CA,1607377111
39,punta arenas,-53.15,-70.92,55.4,66,75,11.41,CL,1607376669
40,cowra,-33.83,148.68,48.0,75,0,1.99,AU,1607377111
41,dongfeng,42.64,125.51,11.97,83,0,6.82,CN,1607377112
42,totolapa,18.52,-96.18,73.99,46,90,6.93,MX,1607377112
43,provideniya,64.38,-173.3,14.0,66,0,2.24,RU,1607376811
44,qaanaaq,77.48,-69.36,-6.38,85,82,2.95,GL,1607376836
45,albany,42.6,-73.97,30.0,59,73,5.01,US,1607376407
46,mount gambier,-37.83,140.77,51.8,71,90,5.82,AU,1607376661
47,monrovia,6.3,-10.8,78.8,94,75,5.41,LR,1607377173
48,faanui,-16.48,-151.75,80.46,77,11,11.99,PF,1607376664
49,bathsheba,13.22,-59.52,80.6,65,20,11.41,BB,1607376904
50,port elizabeth,-33.92,25.57,68.0,94,2,23.04,ZA,1607376731
51,mataura,-46.19,168.86,64.0,68,2,5.01,NZ,1607376584
52,pascagoula,30.37,-88.56,60.8,41,1,9.17,US,1607377173
53,esperance,-33.87,121.9,50.0,87,0,8.05,AU,1607376595
54,osoyoos,49.03,-119.45,33.8,74,100,5.82,CA,1607377174
55,new norfolk,-42.78,147.06,53.01,66,34,3.0,AU,1607376567
56,havoysund,71.0,24.66,33.8,74,75,11.41,NO,1607377174
57,klaksvik,62.23,-6.59,37.4,71,96,13.87,FO,1607377174
58,mehamn,71.04,27.85,28.4,79,90,13.87,NO,1607376673
59,severo-kurilsk,50.68,156.12,26.13,91,93,11.81,RU,1607376569
60,bethel,41.37,-73.41,36.0,47,1,5.82,US,1607376642
61,toamasina,-18.17,49.38,77.0,94,40,2.24,MG,1607377175
62,khandyga,62.67,135.6,-15.61,89,99,1.39,RU,1607377175
63,coyutla,20.25,-97.65,78.8,34,5,11.41,MX,1607377176
64,ler,8.3,30.14,79.99,23,0,5.86,SS,1607377176
65,bosaso,11.28,49.18,76.05,67,6,2.75,SO,1607377176
66,amapa,1.0,-52.0,80.8,66,87,5.75,BR,1607377176
67,tuktoyaktuk,69.45,-133.04,3.2,77,90,4.7,CA,1607376639
68,ferkessedougou,9.6,-5.2,81.73,40,3,4.32,CI,1607377176
69,lasa,46.62,10.7,35.01,100,90,13.87,IT,1607376893
70,san carlos de bariloche,-41.15,-71.31,77.0,20,0,26.4,AR,1607377024
71,kidal,18.44,1.41,74.14,27,0,10.54,ML,1607377177
72,sitka,57.05,-135.33,46.4,75,90,23.04,US,1607376681
73,hithadhoo,-0.6,73.08,82.22,79,100,16.13,MV,1607376645
74,puerto ayora,-0.74,-90.35,82.4,65,0,8.05,EC,1607376581
75,bluff,-46.6,168.33,64.0,66,24,5.01,NZ,1607376616
76,egvekinot,66.32,-179.17,6.35,80,17,3.6,RU,1607377178
77,corrales,35.24,-106.61,60.01,13,1,3.51,US,1607377178
78,lichtenburg,-26.15,26.16,68.45,56,7,10.02,ZA,1607377178
79,williston,48.15,-103.62,46.99,47,100,1.01,US,1607376722
80,heihe,50.24,127.49,3.2,71,0,4.47,CN,1607377179
81,busselton,-33.65,115.33,59.0,76,4,5.01,AU,1607377179
82,cabo san lucas,22.89,-109.91,77.0,43,20,10.29,MX,1607376742
83,aswan,24.09,32.91,68.65,28,0,4.21,EG,1607376717
84,grindavik,63.84,-22.43,35.6,93,90,19.46,IS,1607377004
85,brae,60.4,-1.35,44.6,93,75,17.22,GB,1607377057
86,tasiilaq,65.61,-37.64,14.0,66,6,3.36,GL,1607376880
87,chiredzi,-21.05,31.67,66.65,96,37,2.44,ZW,1607377180
88,ribeira grande,38.52,-28.7,60.8,59,75,12.75,PT,1607376659
89,kaeo,-35.1,173.78,75.0,79,96,5.01,NZ,1607377180
90,barrow,71.29,-156.79,1.4,70,75,3.36,US,1607376641
91,kavieng,-2.57,150.8,84.76,70,72,7.81,PG,1607376983
92,arraial do cabo,-22.97,-42.03,77.0,83,75,9.17,BR,1607376622
93,chuy,-33.7,-53.46,64.6,78,15,10.09,UY,1607376752
94,humaita,-7.51,-63.02,78.8,93,100,1.48,BR,1607377241
95,codrington,-38.27,141.97,55.0,66,98,14.63,AU,1607376726
96,orbetello,42.44,11.22,48.2,93,75,3.36,IT,1607377242
97,mahebourg,-20.41,57.7,77.0,88,20,5.21,MU,1607376652
98,nouadhibou,20.93,-17.03,69.8,56,0,17.22,MR,1607376910
99,jishu,44.32,126.8,5.18,93,6,7.14,CN,1607377242
100,carnarvon,-24.87,113.63,71.6,100,2,2.24,AU,1607377243
101,kavaratti,10.57,72.64,82.74,76,88,14.85,IN,1607376800
102,nome,64.5,-165.41,10.4,51,40,9.17,US,1607376764
103,broome,42.25,-75.83,28.0,73,90,11.41,US,1607377244
104,olinda,-8.01,-34.86,78.8,69,40,10.29,BR,1607376999
105,pangody,65.85,74.49,-6.75,90,0,9.82,RU,1607376999
106,fort dodge,42.5,-94.17,30.2,100,90,2.98,US,1607377244
107,nanning,22.82,108.32,46.4,93,0,2.24,CN,1607377245
108,vao,-22.67,167.48,77.56,87,64,16.91,NC,1607377092
109,maniitsoq,65.42,-52.9,23.72,91,38,10.98,GL,1607376821
110,chicama,-7.84,-79.15,66.2,82,40,12.75,PE,1607377086
111,cidreira,-30.18,-50.21,70.12,84,70,20.07,BR,1607376804
112,hofn,64.25,-15.21,32.18,85,2,6.51,IS,1607377180
113,arman,59.7,150.17,5.27,91,90,11.81,RU,1607377057
114,san policarpo,12.18,125.51,82.2,86,100,10.67,PH,1607377246
115,srednekolymsk,67.45,153.68,-23.78,86,100,10.36,RU,1607377246
116,colquechaca,-18.67,-66.02,41.29,100,92,7.23,BO,1607377246
117,siverskiy,59.35,30.08,24.01,67,0,6.71,RU,1607377246
118,noumea,-22.28,166.46,84.99,70,1,2.24,NC,1607377246
119,komsomolskiy,40.43,71.72,32.0,89,76,2.24,UZ,1607377065
120,dudinka,69.41,86.18,-16.6,75,90,24.61,RU,1607377247
121,east london,-33.02,27.91,71.85,83,39,20.11,ZA,1607377247
122,bredasdorp,-34.53,20.04,66.2,93,98,2.24,ZA,1607377247
123,herat,34.5,62.0,33.78,87,92,9.64,AF,1607377059
124,nikolskoye,59.7,30.79,25.0,67,0,6.71,RU,1607377247
125,hamilton,39.18,-84.53,35.01,79,90,9.17,US,1607377177
126,port blair,11.67,92.75,78.28,79,0,10.07,IN,1607377153
127,joetsu,37.15,138.24,43.0,91,100,15.43,JP,1607376963
128,pahrump,36.21,-115.98,71.01,10,46,4.0,US,1607377154
129,newton,42.34,-71.21,33.01,68,75,9.17,US,1607377086
130,marsabit,2.33,37.99,69.44,81,8,8.3,KE,1607377249
131,marawi,8.0,124.29,75.0,92,56,4.0,PH,1607377015
132,havelock,34.88,-76.9,48.99,93,90,12.75,US,1607377121
133,doha,25.29,51.53,68.0,64,0,9.17,QA,1607377015
134,danjiangkou,32.54,111.51,38.71,74,93,2.86,CN,1607377250
135,nanortalik,60.14,-45.24,30.16,88,100,7.72,GL,1607377250
136,inuvik,68.35,-133.72,1.4,84,100,3.36,CA,1607377250
137,henties bay,-22.12,14.28,62.01,87,2,3.0,NA,1607376656
138,olafsvik,64.89,-23.71,34.63,96,100,7.45,IS,1607377055
139,cherskiy,68.75,161.3,-2.16,93,100,5.97,RU,1607376843
140,rabo de peixe,37.8,-25.58,59.0,72,75,3.36,PT,1607376715
141,palmer,42.16,-72.33,33.8,55,40,10.29,US,1607377174
142,gornopravdinsk,60.05,69.9,19.13,98,100,4.16,RU,1607377311
143,norman wells,65.28,-126.83,1.4,84,40,6.93,CA,1607376846
144,pouembout,-21.13,164.9,86.85,55,2,5.64,NC,1607377311
145,husavik,66.04,-17.34,24.8,73,0,3.36,IS,1607377255
146,puerto baquerizo moreno,-0.9,-89.6,77.0,83,75,14.99,EC,1607376744
147,sisimiut,66.94,-53.67,24.62,91,99,14.65,GL,1607377312
148,teguldet,57.31,88.17,8.19,93,100,13.6,RU,1607377229
149,cortez,37.35,-108.59,48.99,21,1,5.82,US,1607377312
150,shakawe,-18.37,21.85,71.44,77,100,3.65,BW,1607377312
151,cozumel,20.51,-86.95,77.0,78,90,19.46,MX,1607377100
152,kalmunai,7.42,81.82,77.04,85,7,2.37,LK,1607377313
153,cakovec,46.38,16.43,37.4,100,75,2.24,HR,1607377313
154,iqaluit,63.75,-68.51,14.0,78,75,8.05,CA,1607377036
155,nongstoin,25.52,91.27,49.48,91,0,2.93,IN,1607377313
156,mandan,46.83,-100.89,51.8,39,1,14.99,US,1607377130
157,patnanungan,14.78,122.18,81.14,85,100,11.05,PH,1607377314
158,comodoro rivadavia,-45.87,-67.5,78.8,34,0,13.87,AR,1607377212
159,sechura,-5.56,-80.82,76.89,60,45,18.34,PE,1607377210
160,longyearbyen,78.22,15.64,24.8,73,40,16.11,SJ,1607376966
161,chapais,49.78,-74.85,14.0,92,1,3.36,CA,1607376683
162,mukhen,48.1,136.1,10.2,89,97,11.39,RU,1607377314
163,karaton,-6.34,106.1,78.8,88,40,9.17,ID,1607377315
164,tres arroyos,-38.37,-60.28,85.15,16,0,14.99,AR,1607376872
165,srandakan,-7.94,110.25,76.12,84,94,4.54,ID,1607377315
166,teya,60.38,92.63,11.66,91,100,11.99,RU,1607377033
167,ola,59.58,151.28,6.3,92,59,11.03,RU,1607377042
168,khani,41.96,42.96,46.4,45,0,27.51,GE,1607377315
169,gat,31.61,34.76,64.99,50,0,4.0,IL,1607376876
170,taman,45.21,36.72,24.8,79,0,33.55,RU,1607377316
171,zhangye,38.93,100.45,21.76,80,62,8.1,CN,1607377316
172,adre,13.47,22.2,68.58,25,0,8.43,TD,1607377316
173,pisco,-13.7,-76.22,69.8,77,75,8.05,PE,1607376681
174,lagoa,39.05,-27.98,59.99,74,57,13.35,PT,1607376905
175,tiksi,71.69,128.87,-18.83,89,99,1.9,RU,1607376816
176,shizunai,42.33,142.37,34.32,83,59,15.64,JP,1607377317
177,fairbanks,64.84,-147.72,3.2,84,75,1.12,US,1607377069
178,kroya,-7.63,109.25,76.28,85,58,4.38,ID,1607377317
179,kodiak,57.79,-152.41,39.2,93,90,5.82,US,1607376809
180,okha,53.57,142.95,9.82,93,100,10.92,RU,1607377317
181,yagodnoye,62.55,149.67,-24.84,83,66,1.88,RU,1607377318
182,mar del plata,-38.0,-57.56,69.8,64,0,19.46,AR,1607377086
183,alta floresta,-9.88,-56.09,74.79,84,100,3.13,BR,1607377232
184,fortuna,40.6,-124.16,66.0,53,36,1.99,US,1607377318
185,saint-philippe,-21.36,55.77,75.2,78,0,4.7,RE,1607376786
186,vostok,46.49,135.88,-0.83,94,95,5.59,RU,1607376908
187,buique,-8.62,-37.16,75.15,55,71,13.89,BR,1607377319
188,lavrentiya,65.58,-171.0,15.62,86,0,9.19,RU,1607377319
189,blagoyevo,63.37,47.92,25.27,94,100,8.81,RU,1607377379
190,novara,45.59,8.58,39.2,93,75,5.82,IT,1607377379
191,keti bandar,24.14,67.45,72.77,65,0,6.35,PK,1607377379
192,bilibino,68.05,166.44,5.97,89,100,3.11,RU,1607376847
193,ostrovnoy,68.05,39.51,35.15,92,100,11.81,RU,1607377003
194,bandarbeyla,9.49,50.81,75.34,76,14,15.61,SO,1607376991
195,sola,-13.88,167.55,84.2,83,75,4.83,VU,1607377380
196,butaritari,3.07,172.79,81.95,75,72,11.32,KI,1607377380
197,bertoua,4.58,13.68,72.99,46,25,1.32,CM,1607377380
198,borovoy,55.43,86.08,10.4,78,90,8.95,RU,1607377380
199,burgeo,47.62,-57.62,37.78,90,100,10.74,CA,1607377381
200,jaru,-10.44,-62.47,77.65,81,87,3.38,BR,1607377381
201,college,64.86,-147.8,3.2,77,75,6.93,US,1607377237
202,samarai,-10.62,150.67,82.96,77,97,8.66,PG,1607376824
203,saint anthony,45.02,-93.22,33.8,88,90,5.82,US,1607377382
204,antalaha,-14.9,50.28,72.7,86,47,4.27,MG,1607377382
205,asyut,27.18,31.18,63.52,30,31,3.74,EG,1607377382
206,sidi ali,36.1,0.42,57.22,82,96,24.58,DZ,1607377382
207,hasaki,35.73,140.83,39.2,100,20,6.02,JP,1607376807
208,maceio,-9.67,-35.74,75.2,78,0,5.82,BR,1607377334
209,jinxiang,27.43,120.61,56.95,72,100,9.75,CN,1607377383
210,bhainsdehi,21.65,77.63,62.37,45,5,1.77,IN,1607377383
211,vanavara,60.34,102.28,7.7,94,100,8.14,RU,1607377383
212,korbach,51.28,8.87,37.4,80,0,5.82,DE,1607377384
213,pangnirtung,66.15,-65.71,14.0,72,20,4.7,CA,1607376818
214,karratha,-20.74,116.85,81.77,59,76,11.63,AU,1607377136
215,atuona,-9.8,-139.03,79.0,73,1,18.12,PF,1607377384
216,vila,42.03,-8.16,46.0,94,97,7.0,PT,1607377384
217,yenangyaung,20.47,94.88,65.35,76,18,4.92,MM,1607377385
218,ponta do sol,32.67,-17.1,59.0,77,20,5.82,PT,1607377385
219,lebu,-37.62,-73.65,57.81,78,66,7.4,CL,1607377230
220,lompoc,34.64,-120.46,78.8,23,1,4.7,US,1607377012
221,damghan,36.17,54.35,37.69,75,50,1.19,IR,1607377385
222,georgetown,5.41,100.34,80.6,88,20,2.24,MY,1607377385
223,alofi,-19.06,-169.92,82.4,78,75,17.22,NU,1607377386
224,letenye,46.43,16.73,37.4,100,20,5.82,HU,1607377386
225,talnakh,69.49,88.4,-16.6,75,90,24.61,RU,1607376923
226,tabuk,17.42,121.44,73.8,91,100,0.51,PH,1607377386
227,bardiyah,31.76,25.09,60.78,70,0,9.17,LY,1607377386
228,bereda,43.27,-7.54,44.01,99,85,10.0,ES,1607377386
229,sioux lookout,50.1,-91.92,26.6,92,90,5.82,CA,1607377387
230,hurghada,27.26,33.81,67.48,66,11,9.15,EG,1607377232
231,evensk,61.95,159.23,5.97,91,48,8.21,RU,1607377226
232,nevinnomyssk,44.63,41.95,19.4,92,90,17.9,RU,1607377387
233,dharchula,29.85,80.53,50.56,41,2,5.79,IN,1607377387
234,quartucciu,39.25,9.18,52.0,100,40,4.7,IT,1607377387
235,la ronge,55.1,-105.28,42.8,45,100,5.82,CA,1607377448
236,tzucacab,20.07,-89.05,74.62,78,57,7.54,MX,1607377448
237,bitung,1.45,125.18,75.2,94,20,2.73,ID,1607377450
238,ilulissat,69.22,-51.1,24.8,73,100,14.99,GL,1607377450
239,vila velha,-20.33,-40.29,79.0,78,20,19.46,BR,1607377443
240,ustrzyki dolne,49.43,22.59,41.0,86,73,11.01,PL,1607377450
241,fort saint james,54.43,-124.25,38.55,75,19,7.09,CA,1607377451
242,odienne,9.51,-7.57,80.82,38,80,1.43,CI,1607377451
243,sao jose da coroa grande,-8.9,-35.15,77.36,76,25,7.78,BR,1607377451
244,diamantino,-14.41,-56.45,76.73,80,61,2.28,BR,1607377451
245,le port,-20.94,55.29,77.0,73,90,3.36,RE,1607377451
246,kloulklubed,7.04,134.26,77.0,94,90,5.82,PW,1607377452
247,tuy hoa,13.08,109.3,72.81,90,100,11.52,VN,1607376998
248,sijunjung,-0.69,100.95,69.73,88,63,1.52,ID,1607377452
249,daru,-9.08,143.21,76.19,87,99,6.31,PG,1607377453
250,khatanga,71.97,102.5,-8.9,91,100,6.33,RU,1607377453
251,tabou,4.42,-7.35,78.8,82,3,3.71,CI,1607377454
252,inta,66.03,60.17,26.87,98,100,11.97,RU,1607377454
253,hobyo,5.35,48.53,78.4,77,88,14.12,SO,1607377132
254,springbok,-29.66,17.89,51.67,91,1,3.42,ZA,1607377454
255,nelson bay,-32.72,152.15,68.0,52,40,10.29,AU,1607377454
256,mahon,39.89,4.27,59.0,67,20,18.34,ES,1607377019
257,saskylakh,71.92,114.08,-14.28,88,100,3.76,RU,1607377455
258,flinders,-34.58,150.86,64.99,50,9,7.0,AU,1607377455
259,santa pola,38.19,-0.57,59.0,47,0,18.34,ES,1607377455
260,saldanha,-33.01,17.94,62.6,82,0,2.24,ZA,1607377455
261,port hawkesbury,45.62,-61.35,37.0,93,90,12.75,CA,1607377455
262,caravelas,-17.71,-39.25,75.97,79,22,8.59,BR,1607377014
263,marienburg,54.04,19.03,30.0,100,82,12.71,PL,1607377456
264,lucapa,-8.42,20.74,67.46,91,100,3.04,AO,1607377457
265,victoria,22.29,114.16,66.0,68,66,1.01,HK,1607377437
266,pakxe,15.12,105.78,64.51,88,84,2.33,LA,1607377386
267,lata,40.16,-8.33,53.01,87,70,8.01,PT,1607377457
268,yulara,-25.24,130.99,71.6,22,1,10.29,AU,1607377458
269,fukue,32.69,128.84,53.56,71,93,19.95,JP,1607377171
270,san patricio,28.02,-97.52,73.4,32,1,9.17,US,1607377458
271,opuwo,-18.06,13.84,70.81,21,21,8.46,NA,1607377458
272,saurimo,-9.66,20.39,65.61,94,100,2.82,AO,1607377458
273,sao filipe,14.9,-24.5,75.42,74,93,12.21,CV,1607377459
274,yantal,56.85,105.25,17.67,94,100,13.82,RU,1607377459
275,sept-iles,50.2,-66.38,28.4,68,98,9.17,CA,1607377442
276,bontang,0.13,117.5,77.86,84,59,4.54,ID,1607377459
277,hami,42.8,93.45,17.76,83,74,1.72,CN,1607377459
278,pevek,69.7,170.31,7.39,90,20,3.02,RU,1607377460
279,kinarut,5.82,116.05,75.2,94,20,2.24,MY,1607377520
280,tiznit,29.58,-9.5,54.23,65,0,2.51,MA,1607376956
281,basco,20.45,121.97,78.33,88,98,19.13,PH,1607377520
282,thompson,55.74,-97.86,23.0,100,90,5.82,CA,1607377502
283,pimentel,-6.84,-79.93,73.4,64,0,23.04,PE,1607377240
284,isangel,-19.55,169.27,84.2,74,75,5.82,VU,1607377362
285,chachapoyas,-6.23,-77.87,58.17,83,97,1.14,PE,1607377521
286,panama city,8.99,-79.52,86.0,70,40,11.41,PA,1607377274
287,grand gaube,-20.01,57.66,75.0,82,13,4.0,MU,1607377521
288,sao joao da barra,-21.64,-41.05,78.8,78,75,18.34,BR,1607377522
289,southwick,42.05,-72.77,35.6,55,1,13.87,US,1607377522
290,chokurdakh,70.63,147.92,-13.11,90,100,4.56,RU,1607377522
291,quatre cocos,-20.21,57.76,77.0,88,20,5.66,MU,1607377049
292,bengkulu,-3.8,102.27,74.26,87,72,4.81,ID,1607377522
293,borba,-4.39,-59.59,76.28,88,100,1.77,BR,1607377523
294,zhigansk,66.77,123.37,-25.64,86,100,3.09,RU,1607377109
295,usevya,-7.1,31.23,68.97,75,50,0.92,TZ,1607377456
296,euclides da cunha,-10.51,-39.02,76.26,67,52,8.39,BR,1607377523
297,puerto leguizamo,-0.19,-74.78,79.72,89,87,1.12,CO,1607377168
298,beringovskiy,63.05,179.32,12.43,86,8,4.45,RU,1607377523
299,rio gallegos,-51.62,-69.22,69.8,43,40,8.05,AR,1607377523
300,dikson,73.51,80.55,-3.96,93,98,6.6,RU,1607377524
301,cordele,31.96,-83.78,52.0,57,75,9.17,US,1607377475
302,wakuya,38.53,141.13,42.8,93,75,5.82,JP,1607377524
303,kaitangata,-46.28,169.85,64.83,49,1,7.47,NZ,1607377524
304,cam ranh,11.92,109.16,77.0,73,75,17.22,VN,1607377078
305,tuatapere,-46.13,167.68,64.0,66,7,5.01,NZ,1607376803
306,wake forest,35.98,-78.51,36.0,100,90,8.05,US,1607377525
307,katsuura,35.13,140.3,46.4,75,20,4.7,JP,1607377525
308,xining,36.62,101.77,17.65,85,94,3.74,CN,1607377254
309,tondano,1.3,124.91,75.2,94,20,1.03,ID,1607377526
310,los llanos de aridane,28.66,-17.92,64.4,72,75,8.05,ES,1607377526
311,mount isa,-20.73,139.5,78.8,22,79,17.22,AU,1607377526
312,olenegorsk,68.15,33.3,31.05,98,100,2.57,RU,1607377526
313,luwuk,-0.95,122.79,79.65,77,100,1.23,ID,1607377526
314,oxapampa,-10.58,-75.4,62.15,90,100,2.06,PE,1607377526
315,rawson,-43.3,-65.1,95.0,17,75,17.22,AR,1607377527
316,zhongshu,24.52,103.77,45.16,91,100,3.04,CN,1607377527
317,chokwe,-24.53,32.98,70.56,80,0,5.08,MZ,1607377527
318,bubaque,11.28,-15.83,81.3,70,12,9.66,GW,1607377055
319,avarua,-21.21,-159.78,82.4,74,17,9.17,CK,1607377527
320,mayna,54.11,47.62,13.82,90,0,5.88,RU,1607377528
321,hazebrouck,50.72,2.54,36.0,98,82,4.41,FR,1607377528
322,vouliagmeni,37.82,23.78,57.2,58,20,6.93,GR,1607377528
323,severo-yeniseyskiy,60.37,93.04,7.74,94,100,14.58,RU,1607377528
324,uvira,-3.41,29.15,73.96,67,98,1.12,CD,1607377528
325,tabora,-5.02,32.8,66.2,93,20,5.82,TZ,1607377529
326,saint-leu,-21.15,55.28,75.2,78,0,5.82,RE,1607377529
327,ganzhou,28.82,115.43,46.92,80,100,5.08,CN,1607377530
328,bonthe,7.53,-12.51,78.4,83,1,4.76,SL,1607377002
329,troitskoye,52.98,84.68,8.38,91,100,13.73,RU,1607377591
330,ambunti,-4.24,142.84,76.51,95,100,1.05,PG,1607377593
331,sri aman,1.24,111.46,73.4,94,81,1.19,MY,1607377594
332,muscat,23.61,58.59,75.2,88,0,1.12,OM,1607377594
333,havre-saint-pierre,50.23,-63.6,32.0,90,90,13.87,CA,1607377594
334,riyadh,24.69,46.72,53.6,66,0,2.24,SA,1607377365
335,sobolevo,54.43,31.9,20.03,89,0,11.7,RU,1607377595
336,belousovka,50.13,82.52,-5.8,83,90,2.24,KZ,1607377595
337,pathalgaon,22.57,83.47,60.3,51,4,2.89,IN,1607377595
338,abha,18.22,42.51,55.4,58,0,5.82,SA,1607377567
339,waitati,-45.75,170.57,61.0,62,7,13.0,NZ,1607377596
340,umreth,22.7,73.12,64.4,77,8,6.33,IN,1607377596
341,derbent,42.07,48.29,39.45,74,98,8.75,RU,1607377596
342,lesogorsk,56.05,99.51,19.27,95,100,14.0,RU,1607377596
343,susangerd,31.56,48.18,57.2,71,0,4.7,IR,1607377596
344,udachnyy,66.42,112.4,-18.4,75,0,1.05,RU,1607377596
345,fuling,29.7,107.39,48.06,78,99,1.7,CN,1607377513
346,kargasok,59.06,80.86,15.15,96,99,12.21,RU,1607377597
347,tarko-sale,64.92,77.78,-5.01,85,28,14.47,RU,1607377597
348,kanniyakumari,8.08,77.57,79.3,82,6,12.24,IN,1607377597
349,camana,-16.62,-72.71,69.69,66,44,5.99,PE,1607377597
350,issoudun,47.0,1.83,39.2,93,100,9.17,FR,1607377598
351,ponta pora,-22.54,-55.73,80.6,51,40,9.17,BR,1607377598
352,wufeng,27.45,104.83,31.57,100,92,1.97,CN,1607377598
353,ahipara,-35.17,173.17,72.01,74,68,13.51,NZ,1607377598
354,brookhaven,31.58,-90.44,57.0,60,0,6.69,US,1607377416
355,xuanzhou,30.95,118.76,43.7,88,100,10.96,CN,1607377599
356,milkovo,54.72,158.62,4.17,92,49,1.14,RU,1607377599
357,alice springs,-23.7,133.88,73.99,28,100,8.05,AU,1607377402
358,tilichiki,60.47,166.1,9.7,97,100,4.83,RU,1607377599
359,podgornoye,51.73,39.15,15.8,72,0,6.71,RU,1607377600
360,corsicana,32.1,-96.47,63.0,33,1,9.17,US,1607377600
361,labuhan,-6.88,112.21,79.5,85,100,12.35,ID,1607377600
362,hohhot,40.81,111.65,-2.2,77,0,4.47,CN,1607377582
363,indianola,41.36,-93.56,37.4,67,1,1.52,US,1607377600
364,hay river,60.82,-115.8,35.6,55,48,8.05,CA,1607377600
365,dalby,-27.18,151.27,75.0,53,84,4.0,AU,1607377601
366,saint george,37.1,-113.58,63.0,15,1,3.36,US,1607377328
367,grand forks,47.94,-97.43,44.6,45,1,5.82,US,1607377601
368,maniwaki,46.38,-75.97,21.2,67,0,5.82,CA,1607377602
369,xiaoweizhai,26.19,107.51,39.49,86,99,3.56,CN,1607377602
370,atar,20.52,-13.05,65.26,28,78,10.8,MR,1607377602
371,taltal,-25.4,-70.48,66.4,63,22,7.11,CL,1607377107
372,zhezkazgan,47.8,67.71,2.84,92,0,8.28,KZ,1607377602
373,kruisfontein,-34.0,24.73,69.01,91,17,3.0,ZA,1607377643
374,itarema,-2.92,-39.92,80.42,76,11,16.35,BR,1607377663
375,wahiawa,21.5,-158.02,84.2,61,20,10.29,US,1607377663
376,kentau,43.52,68.51,14.05,82,0,2.42,KZ,1607377663
377,newport,51.59,-3.0,36.0,95,13,3.13,GB,1607377637
378,omidiyeh,30.76,49.7,57.2,82,7,11.41,IR,1607377663
379,vallenar,-28.57,-70.76,79.7,28,0,8.23,CL,1607377664
380,horta,38.53,-28.63,60.8,59,75,12.75,PT,1607377664
381,manaure,11.78,-72.44,85.17,68,100,10.4,CO,1607377664
382,prescott valley,34.59,-112.33,64.0,9,1,13.87,US,1607377468
383,cangzhou,38.32,116.87,22.6,74,0,2.68,CN,1607377664
384,cabedelo,-6.98,-34.83,78.8,78,20,10.29,BR,1607377665
385,ozark,37.02,-93.21,53.01,54,0,3.0,US,1607377665
386,yar-sale,66.83,70.83,-3.37,86,0,5.23,RU,1607377665
387,cockburn town,21.46,-71.14,80.6,65,40,5.82,TC,1607377665
388,saint-georges,12.06,-61.75,82.4,74,20,16.11,GD,1607377482
389,muisne,0.6,-80.03,80.6,83,75,12.75,EC,1607377666
390,athens,37.98,23.72,57.0,73,14,1.01,GR,1607377387
391,mackay,-21.15,149.2,82.4,78,40,9.17,AU,1607377666
392,enumclaw,47.2,-121.99,54.0,79,98,1.5,US,1607377414
393,furstenwalde,52.37,14.07,43.0,93,40,1.12,DE,1607377667
394,phan thiet,10.93,108.1,74.26,82,93,3.53,VN,1607377668
395,kijang,35.24,129.21,33.8,64,0,8.05,KR,1607377668
396,upernavik,72.79,-56.15,17.69,96,100,5.93,GL,1607377668
397,margate,51.38,1.39,42.01,90,98,3.22,GB,1607377668
398,qixingtai,30.41,111.89,41.68,77,78,4.79,CN,1607377668
399,kieta,-6.22,155.63,83.03,73,100,0.6,PG,1607377668
400,jibuti,11.5,42.5,80.6,69,75,6.91,DJ,1607377669
401,mayor pablo lagerenza,-19.93,-60.77,87.12,32,1,2.3,PY,1607377669
402,dendermonde,51.03,4.08,37.99,95,92,1.01,BE,1607377669
403,caranavi,-15.82,-67.55,71.73,80,59,2.8,BO,1607377670
404,sosnovo-ozerskoye,52.52,111.54,1.33,93,100,10.22,RU,1607377670
405,nioro,13.35,-15.75,77.5,33,61,5.97,GM,1607377670
406,hambantota,6.12,81.12,73.4,100,75,4.7,LK,1607377670
407,acarau,-2.89,-40.12,80.64,76,16,18.3,BR,1607377670
408,touros,-5.2,-35.46,78.8,83,40,9.17,BR,1607377671
409,porto novo,6.5,2.6,84.2,79,20,11.41,BJ,1607377671
410,suez,29.97,32.53,67.12,72,0,13.58,EG,1607377671
411,pereslavl-zalesskiy,56.74,38.86,19.15,92,0,5.06,RU,1607377671
412,koulamoutou,-1.13,12.47,71.64,94,43,1.68,GA,1607377671
413,kutum,14.2,24.67,64.26,28,17,8.66,SD,1607377671
414,tijara,27.93,76.85,71.01,6,0,1.79,IN,1607377672
415,bambous virieux,-20.34,57.76,77.0,88,20,5.17,MU,1607377672
416,guanica,17.97,-66.91,80.01,75,60,1.01,PR,1607377672
417,kedrovyy,56.17,91.82,17.6,85,75,13.42,RU,1607377672
418,mahina,-17.51,-149.49,78.8,83,75,3.36,PF,1607377672
419,ligourion,37.62,23.03,55.99,60,40,6.49,GR,1607377673
420,taft,31.75,54.21,44.6,87,75,6.93,IR,1607377733
421,muncar,-8.43,114.33,77.18,85,99,1.03,ID,1607377733
422,placido de castro,-10.34,-67.19,84.58,63,67,1.07,BR,1607377733
423,gummidipundi,13.4,80.15,78.8,94,75,2.24,IN,1607377733
424,saint cloud,45.56,-94.16,30.99,92,90,4.7,US,1607377493
425,fort nelson,58.81,-122.7,23.0,85,75,2.35,CA,1607377734
426,geraldton,-28.77,114.6,84.2,17,0,17.22,AU,1607377734
427,kahului,20.89,-156.47,82.4,65,40,21.92,US,1607377646
428,tshikapa,-6.42,20.8,70.88,90,70,0.92,CD,1607377734
429,novocheremshansk,54.36,50.17,13.73,93,0,4.81,RU,1607377734
430,liku,-0.73,119.89,76.42,81,96,2.71,ID,1607377735
431,puerto montt,-41.47,-72.94,64.4,68,40,11.41,CL,1607377735
432,okhotsk,59.38,143.3,-5.76,89,100,15.17,RU,1607377736
433,oistins,13.07,-59.53,80.6,65,20,11.41,BB,1607377736
434,mildura,-34.2,142.15,55.99,71,1,8.05,AU,1607377736
435,camacha,33.08,-16.33,60.8,87,40,9.17,PT,1607377736
436,tenamaxtlan,20.22,-104.17,72.66,45,64,0.94,MX,1607377737
437,najran,17.49,44.13,60.8,51,5,4.7,SA,1607377737
438,payette,44.08,-116.93,41.0,51,1,2.35,US,1607377737
439,lubaczow,50.16,23.12,27.0,86,2,10.0,PL,1607377737
440,asau,46.43,26.4,26.01,23,100,3.06,RO,1607377737
441,huarmey,-10.07,-78.15,68.16,81,99,7.58,PE,1607377737
442,manuk mangkaw,4.8,119.85,83.26,74,97,8.52,PH,1607377738
443,lima,-12.04,-77.03,69.8,73,75,14.99,PE,1607377264
444,aklavik,68.22,-135.01,1.4,84,90,2.24,CA,1607377738
445,cururupu,-1.83,-44.87,78.71,81,100,4.09,BR,1607377738
446,nhulunbuy,-12.23,136.77,78.8,94,90,5.93,AU,1607377738
447,alihe,50.57,123.72,1.54,89,0,2.8,CN,1607377739
448,namtsy,62.72,129.67,-36.4,65,94,2.24,RU,1607377739
449,petropavl,54.88,69.16,17.51,97,100,12.55,KZ,1607377739
450,jati,24.35,68.27,71.02,50,7,6.51,PK,1607377739
451,ust-tsilma,65.44,52.15,36.01,96,100,7.4,RU,1607377739
452,pindi bhattian,31.9,73.27,61.03,38,92,3.09,PK,1607377740
453,oktyabrskiy,54.48,53.47,10.62,90,0,3.06,RU,1607377740
454,cayenne,4.93,-52.33,82.4,74,0,8.05,GF,1607377740
455,ocean city,39.28,-74.57,37.4,51,1,9.17,US,1607377740
456,itapora,-22.08,-54.79,77.41,76,0,5.01,BR,1607377577
457,hwange,-18.37,26.5,72.46,86,100,3.76,ZW,1607377740
458,qasigiannguit,68.82,-51.19,24.8,73,100,14.99,GL,1607377741
459,koutiala,12.39,-5.46,76.82,23,45,5.75,ML,1607377741
460,ankang,32.68,109.02,40.64,74,95,2.59,CN,1607377741
461,safaga,26.73,33.94,73.4,64,0,5.82,EG,1607377741
462,souillac,-20.52,57.52,77.0,88,20,5.88,MU,1607377741
463,mandalgovi,45.76,106.27,-4.92,84,6,8.23,MN,1607377802
464,hamburg,53.55,10.0,42.01,93,75,6.93,DE,1607377643
465,bol,13.46,14.71,79.81,37,59,13.96,TD,1607377802
466,kiruna,67.86,20.23,14.0,92,100,1.48,SE,1607377802
467,isiro,2.77,27.62,68.49,82,0,0.47,CD,1607377802
468,boffa,10.17,-14.03,78.21,82,0,3.44,GN,1607377803
469,hualmay,-11.1,-77.61,68.79,75,96,8.19,PE,1607377804
470,pundaguitan,6.37,126.17,83.3,73,93,5.37,PH,1607377804
471,quattro castella,44.63,10.47,39.99,87,89,1.19,IT,1607377804
472,dawlatabad,36.41,64.91,32.25,89,99,5.12,AF,1607377804
473,benguela,-12.58,13.41,75.25,80,10,4.94,AO,1607377805
474,bonavista,48.65,-53.11,43.0,93,31,5.82,CA,1607377806
475,minab,27.15,57.08,71.6,64,7,4.7,IR,1607377806
476,broken hill,-31.95,141.43,53.6,66,0,18.34,AU,1607377806
477,san cristobal,7.77,-72.22,86.0,58,40,5.82,VE,1607377806
478,general roca,-39.03,-67.58,96.8,22,0,2.24,AR,1607377808
479,borgo san lorenzo,43.96,11.38,45.0,93,75,4.7,IT,1607377808
480,maraba,-5.37,-49.12,84.2,79,90,3.36,BR,1607377808
481,retz,48.75,15.96,43.0,92,100,13.0,AT,1607377808
482,port macquarie,-31.43,152.92,77.0,34,65,5.01,AU,1607377575
483,luderitz,-26.65,15.16,59.34,94,13,4.5,NA,1607377809
484,ulaangom,49.98,92.07,-4.54,85,32,4.16,MN,1607377809
485,mbanza-ngungu,-5.25,14.87,70.86,92,100,2.33,CD,1607377809
486,luau,-10.71,22.22,65.41,98,100,2.46,AO,1607377810
487,jiayuguan,39.82,98.3,16.11,89,100,3.51,CN,1607377810
488,ardakan,32.31,54.02,44.6,87,75,6.93,IR,1607377810
489,corozal,9.32,-75.29,82.47,81,100,4.16,CO,1607377810
490,warren,39.43,-84.17,34.0,88,90,5.82,US,1607377723
491,batagay-alyta,67.8,130.41,-29.61,83,90,0.72,RU,1607377810
492,kozan,37.46,35.82,57.0,87,75,10.29,TR,1607377811
493,te anau,-45.42,167.72,59.22,56,5,8.16,NZ,1607377811
494,lanciano,42.22,14.39,46.4,70,82,4.7,IT,1607377811
495,ereymentau,51.62,73.1,1.36,91,42,15.75,KZ,1607377811
496,flin flon,54.77,-101.86,32.0,90,90,6.93,CA,1607377811
497,barga,44.07,10.48,46.99,97,100,3.65,IT,1607377812
498,port lincoln,-34.73,135.87,56.64,60,93,6.38,AU,1607377812
499,buin,-33.73,-70.75,82.4,28,0,10.29,CL,1607377812
500,nabire,-3.37,135.48,75.7,85,100,3.15,ID,1607377812
501,tura,25.52,90.22,59.74,80,0,3.87,IN,1607377812
502,santa fe,-31.63,-60.7,82.99,33,0,4.0,AR,1607377764
503,diffa,13.32,12.61,76.75,25,99,8.63,NE,1607377813
504,sibolga,1.74,98.78,76.8,76,100,3.51,ID,1607377813
505,sakyla,61.03,22.33,32.0,86,90,6.93,FI,1607377813
506,lac du bonnet,50.25,-96.06,30.99,100,26,4.7,CA,1607377813
507,krasnoselkup,65.7,82.47,-10.71,88,39,17.96,RU,1607377814
508,abu kamal,34.45,40.92,58.06,36,94,8.66,SY,1607377814
509,vanimo,-2.67,141.3,79.7,84,98,5.28,PG,1607377874
510,taunggyi,20.78,97.03,48.88,100,2,1.07,MM,1607377874
511,nago,26.59,127.98,68.0,82,90,16.11,JP,1607377698
512,novyy urengoy,66.08,76.63,-9.27,89,0,12.91,RU,1607377875
513,korla,41.76,86.15,21.81,88,84,4.52,CN,1607377831
514,manassas park,38.78,-77.47,37.4,51,1,11.41,US,1607377875
515,tual,-5.67,132.75,83.71,71,68,1.1,ID,1607377876
516,san ignacio,17.16,-89.07,75.2,78,75,6.93,BZ,1607377876
517,khulo,41.64,42.31,51.8,37,75,23.04,GE,1607377876
518,manta,-0.95,-80.73,82.4,65,40,13.87,EC,1607377876
519,batticaloa,7.71,81.69,77.45,85,0,2.89,LK,1607377751
520,pavlogradka,54.2,73.56,12.7,96,99,13.6,RU,1607377877
521,methoni,36.82,21.7,54.0,66,14,3.36,GR,1607377877
522,faya,18.39,42.45,55.4,58,0,5.82,SA,1607377877
523,kayerkan,69.35,87.76,-16.6,75,90,24.61,RU,1607377877
524,saint-pierre,-21.34,55.48,75.2,78,0,5.82,RE,1607377877
525,barstow,34.9,-117.02,61.0,9,1,8.05,US,1607377877
526,xichang,27.9,102.26,46.0,55,39,0.34,CN,1607377878
527,lakes entrance,-37.88,147.98,57.99,63,16,4.0,AU,1607377878
528,vung tau,10.35,107.08,76.59,84,77,6.31,VN,1607377878
529,novosheshminsk,55.07,51.23,15.37,91,23,6.33,RU,1607377878
530,muros,42.78,-9.06,52.0,78,51,8.99,ES,1607377879
531,ndele,8.41,20.65,75.87,21,99,6.64,CF,1607377721
532,tanout,14.97,8.89,76.46,19,0,11.07,NE,1607377879
533,kenai,60.55,-151.26,35.01,69,40,24.16,US,1607377861
534,alice,27.75,-98.07,77.0,18,1,11.41,US,1607377879
535,okato,-39.2,173.88,66.0,97,100,11.01,NZ,1607377879
536,sapouy,11.55,-1.77,80.19,23,0,3.83,BF,1607377880
537,richards bay,-28.78,32.04,72.19,84,100,9.17,ZA,1607377880
538,graz,47.07,15.45,39.0,100,75,2.24,AT,1607377880
539,mount pleasant,32.79,-79.86,57.2,62,20,11.41,US,1607377849
540,fairview,40.81,-74.0,41.0,44,1,3.36,US,1607377880
541,pipar,26.39,73.54,65.97,31,0,7.02,IN,1607377881
542,nadym,65.53,72.52,-3.24,92,0,8.84,RU,1607377881
543,chernyshkovskiy,48.42,42.23,16.38,93,0,11.18,RU,1607377881
544,mujiayingzi,42.12,118.78,1.98,82,0,8.05,CN,1607377881
545,segezha,63.74,34.32,29.43,94,99,11.07,RU,1607377881
546,botwood,49.15,-55.35,39.99,88,85,6.44,CA,1607377881
547,khilok,51.37,110.47,0.64,85,47,4.41,RU,1607377882
548,goedereede,51.82,3.98,36.0,95,100,12.35,NL,1607377882
549,poum,-20.23,164.02,80.2,78,33,12.8,NC,1607377882
550,port hedland,-20.32,118.57,80.6,78,40,6.93,AU,1607377882
551,morondava,-20.28,44.28,79.7,82,83,2.82,MG,1607377882
552,kindu,-2.95,25.95,71.17,97,100,1.88,CD,1607377884
553,coahuayana,18.73,-103.68,80.6,57,75,4.9,MX,1607377885
554,tamale,9.4,-0.84,86.76,33,3,2.95,GH,1607377945
555,pinheiro machado,-31.58,-53.38,62.01,87,63,1.99,BR,1607377945
556,along,28.17,94.77,50.45,80,0,1.45,IN,1607377946
557,ojinaga,29.57,-104.42,64.4,22,1,0.78,MX,1607377946
558,loukhi,66.08,33.04,33.39,93,100,8.57,RU,1607377946
559,tahta,26.77,31.5,68.0,45,0,8.05,EG,1607377946
560,saurikh,27.03,79.49,64.96,38,0,2.73,IN,1607377946
561,pleshanovo,52.83,53.48,8.42,89,0,5.7,RU,1607377946
562,gigmoto,13.78,124.39,80.31,87,100,9.46,PH,1607377947
563,torata,-17.08,-70.84,62.42,52,17,7.65,PE,1607377947
564,lahad datu,5.03,118.33,76.24,90,97,1.34,MY,1607377947
565,churapcha,62.0,132.43,-20.36,87,97,1.97,RU,1607377947
566,eganville,45.53,-77.1,24.8,68,1,9.17,CA,1607377947
567,svobodnyy,51.4,128.13,-2.85,89,0,4.85,RU,1607377735
568,kovdor,67.57,30.48,33.67,97,100,4.03,RU,1607377948
569,statesboro,32.45,-81.78,53.6,66,1,9.17,US,1607377948
570,nakamura,32.98,132.93,47.14,74,0,5.64,JP,1607377948
571,ternate,0.8,127.4,81.84,79,100,4.63,ID,1607377948
572,teguise,29.06,-13.56,64.4,72,75,6.93,ES,1607377687
573,corn island,12.17,-83.04,81.32,80,14,18.75,NI,1607377949
