,City,Lat,Lng,Max Temp,Humidity,Cloudiness,Wind Speed,Country,Date
0,punta arenas,-53.15,-70.92,60.8,59,100,25.28,CL,1607298269
1,atuona,-9.8,-139.03,78.46,74,1,15.03,PF,1607298260
2,kapaa,22.08,-159.32,84.2,66,40,10.29,US,1607298267
3,ushuaia,-54.8,-68.3,50.0,93,75,2.68,AR,1607298201
4,rikitea,-23.12,-134.97,76.89,78,7,14.52,PF,1607298269
5,constitucion,-35.33,-72.42,54.88,88,24,9.93,CL,1607298270
6,cidreira,-30.18,-50.21,66.0,89,100,18.97,BR,1607298270
7,kidal,18.44,1.41,71.02,30,3,8.25,ML,1607298270
8,qaanaaq,77.48,-69.36,-2.25,72,97,1.68,GL,1607298014
9,thompson,55.74,-97.86,17.6,100,90,8.05,CA,1607297990
10,chuy,-33.7,-53.46,57.34,71,6,6.4,UY,1607298271
11,zaraza,9.35,-65.32,74.5,96,96,4.97,VE,1607298271
12,castro,-24.79,-50.01,59.34,97,100,7.11,BR,1607298036
13,bluff,-46.6,168.33,57.81,75,41,13.11,NZ,1607298259
14,montbrison,45.67,4.08,35.6,100,90,5.82,FR,1607298271
15,albany,42.6,-73.97,30.99,58,4,3.0,US,1607298271
16,mataura,-46.19,168.86,64.11,50,40,9.35,NZ,1607298272
17,sao filipe,14.9,-24.5,75.33,76,33,10.69,CV,1607298272
18,korla,41.76,86.15,25.66,85,91,1.52,CN,1607298272
19,duldurga,50.68,113.59,6.96,86,9,9.51,RU,1607298272
20,klaksvik,62.23,-6.59,41.0,74,63,10.29,FO,1607297987
21,hami,42.8,93.45,18.57,82,0,3.04,CN,1607298262
22,leningradskiy,69.38,178.42,9.88,87,73,1.1,RU,1607298273
23,hastings,50.86,0.57,36.0,95,9,5.99,GB,1607298273
24,busselton,-33.65,115.33,61.0,73,0,5.01,AU,1607297977
25,dikson,73.51,80.55,-4.0,93,54,10.25,RU,1607298275
26,padang,-0.95,100.35,79.09,73,98,2.82,ID,1607298275
27,chokurdakh,70.63,147.92,-26.23,85,59,3.24,RU,1607297983
28,san patricio,28.02,-97.52,64.4,42,20,17.22,US,1607298276
29,emerald,-23.53,148.17,90.0,52,1,10.29,AU,1607298276
30,karratha,-20.74,116.85,87.37,53,79,4.94,AU,1607298276
31,nanortalik,60.14,-45.24,30.67,94,60,7.29,GL,1607297977
32,port elizabeth,-33.92,25.57,66.2,93,90,14.99,ZA,1607298277
33,quatre cocos,-20.21,57.76,77.0,88,75,12.75,MU,1607298049
34,todos santos,23.45,-110.22,73.0,63,0,4.0,MX,1607298277
35,natal,-5.79,-35.21,80.6,78,40,11.41,BR,1607298079
36,provideniya,64.38,-173.3,19.4,62,0,8.95,RU,1607298265
37,vila franca do campo,37.72,-25.43,57.2,76,75,6.93,PT,1607298034
38,roma,43.21,-75.46,30.99,68,90,9.17,US,1607298278
39,meulaboh,4.14,96.13,76.66,83,100,3.02,ID,1607298057
40,vidim,56.41,103.11,8.58,93,100,12.08,RU,1607298278
41,machali,-34.18,-70.67,82.4,32,0,3.49,CL,1607298276
42,ramonville-saint-agne,43.55,1.47,41.0,86,0,14.99,FR,1607298278
43,kaitangata,-46.28,169.85,65.62,44,23,9.06,NZ,1607298279
44,benguela,-12.58,13.41,74.52,83,95,5.95,AO,1607298279
45,jamestown,42.1,-79.24,28.0,85,90,4.7,US,1607298279
46,naze,28.37,129.48,71.6,94,75,11.41,JP,1607298052
47,tayshet,55.93,98.0,14.27,94,100,11.65,RU,1607298340
48,masallatah,32.62,14.0,50.52,47,0,20.49,LY,1607298340
49,faanui,-16.48,-151.75,81.39,66,94,5.3,PF,1607298269
50,taltal,-25.4,-70.48,61.88,72,22,5.19,CL,1607298340
51,dustlik,40.52,68.04,24.04,88,88,5.95,UZ,1607298340
52,veraval,20.9,70.37,73.98,49,0,10.38,IN,1607298340
53,yellowknife,62.46,-114.35,19.4,92,90,8.05,CA,1607298231
54,ponta do sol,32.67,-17.1,59.0,82,40,8.05,PT,1607298341
55,cabo san lucas,22.89,-109.91,75.0,40,5,9.17,MX,1607298341
56,hithadhoo,-0.6,73.08,82.13,80,88,18.3,MV,1607298342
57,nikolskoye,59.7,30.79,30.99,54,0,11.18,RU,1607298343
58,isangel,-19.55,169.27,84.2,79,75,5.82,VU,1607298343
59,saskylakh,71.92,114.08,-9.22,89,100,6.2,RU,1607298343
60,cape town,-33.93,18.42,68.0,72,0,9.17,ZA,1607298254
61,saint-philippe,-21.36,55.77,75.2,73,40,4.7,RE,1607298344
62,mol,51.19,5.11,36.0,100,100,3.36,BE,1607298345
63,tomatlan,19.93,-105.25,76.87,67,92,5.3,MX,1607298345
64,antonina,-25.43,-48.71,60.8,100,90,8.05,BR,1607298164
65,cockburn town,21.46,-71.14,77.0,73,20,3.36,TC,1607298079
66,puri,19.8,85.85,68.0,94,0,5.59,IN,1607298347
67,quixada,-4.97,-39.02,78.64,70,77,9.73,BR,1607298347
68,alyangula,-13.85,136.42,86.0,66,40,10.29,AU,1607298348
69,tefe,-3.35,-64.71,75.2,88,90,4.7,BR,1607298348
70,kumi,36.11,128.34,30.2,92,40,2.24,KR,1607298350
71,vieux-habitants,16.06,-61.77,75.2,83,0,3.36,GP,1607298351
72,aswan,24.09,32.91,60.89,31,0,4.36,EG,1607298351
73,east london,-33.02,27.91,70.27,91,100,15.61,ZA,1607298352
74,guerrero negro,27.98,-114.06,69.51,37,33,12.86,MX,1607298353
75,port hedland,-20.32,118.57,87.8,58,58,12.75,AU,1607298353
76,laguna,38.42,-121.42,63.0,36,1,10.29,US,1607298356
77,el tarra,8.58,-73.09,75.29,83,88,0.43,CO,1607298356
78,weligama,5.97,80.42,75.24,88,62,3.65,LK,1607298356
79,tasiilaq,65.61,-37.64,26.6,63,100,10.29,GL,1607298356
80,lebu,-37.62,-73.65,54.34,91,40,9.44,CL,1607298357
81,puerto ayora,-0.74,-90.35,73.0,90,68,3.0,EC,1607298357
82,harper,4.38,-7.72,78.35,81,2,4.09,LR,1607298357
83,komsomolskiy,40.43,71.72,28.4,79,72,9.17,UZ,1607298357
84,canico,32.63,-16.85,59.0,82,40,8.05,PT,1607298358
85,diapaga,12.07,1.79,78.24,23,34,5.35,BF,1607298358
86,sayat,38.78,63.88,28.4,54,0,11.41,TM,1607298149
87,lasa,46.62,10.7,37.0,76,90,9.17,IT,1607298358
88,ust-kan,50.93,84.76,2.82,76,40,2.77,RU,1607298419
89,lakatoro,-16.1,167.42,86.0,74,40,4.7,VU,1607298420
90,bobrovka,54.05,61.75,15.15,87,88,5.57,RU,1607298422
91,cozumel,20.51,-86.95,78.8,88,75,3.36,MX,1607298384
92,cranbrook,49.5,-115.77,19.4,92,90,3.36,CA,1607298267
93,saint-georges,12.06,-61.75,78.8,83,20,11.41,GD,1607298422
94,iqaluit,63.75,-68.51,12.2,78,90,16.11,CA,1607298259
95,victoria,22.29,114.16,66.99,63,2,1.01,HK,1607298423
96,nakamura,32.98,132.93,54.19,60,0,3.15,JP,1607298426
97,longyearbyen,78.22,15.64,26.6,86,90,21.92,SJ,1607298426
98,cervo,43.67,-7.41,54.0,96,100,1.01,ES,1607298428
99,khatima,28.92,79.97,58.62,52,0,2.82,IN,1607298429
100,chesma,53.81,60.65,16.75,84,70,5.82,RU,1607298266
101,mbini,1.57,9.61,79.09,83,100,6.29,GQ,1607298429
102,usoke,-5.17,32.35,66.09,84,32,0.89,TZ,1607298429
103,bathsheba,13.22,-59.52,77.65,80,3,14.47,BB,1607298429
104,tilichiki,60.47,166.1,23.47,98,100,1.99,RU,1607298429
105,narsaq,60.92,-46.05,26.6,73,52,1.12,GL,1607298430
106,carnarvon,-24.87,113.63,77.0,50,13,12.75,AU,1607298430
107,mutuipe,-13.23,-39.5,68.22,95,5,1.43,BR,1607298430
108,vila,42.03,-8.16,48.99,96,100,11.01,PT,1607298430
109,asau,46.43,26.4,30.99,13,100,5.3,RO,1607298430
110,smirnykh,49.75,142.83,16.56,91,100,1.77,RU,1607298431
111,deer lake,49.17,-57.43,35.6,100,90,12.75,CA,1607298431
112,barrow,71.29,-156.79,3.2,65,1,12.75,US,1607298431
113,baculin,7.45,126.58,82.13,72,82,1.3,PH,1607298431
114,tiksi,71.69,128.87,-13.29,89,100,3.87,RU,1607298432
115,upernavik,72.79,-56.15,22.26,97,100,4.27,GL,1607298432
116,buzmeyin,38.05,58.21,35.6,43,90,4.7,TM,1607298432
117,havelock,34.88,-76.9,46.99,78,90,1.45,US,1607298137
118,salinopolis,-0.61,-47.36,80.76,79,89,11.74,BR,1607298432
119,maningrida,-12.07,134.27,87.89,62,93,3.91,AU,1607298433
120,penzance,50.12,-5.54,35.6,100,71,9.17,GB,1607298435
121,vaini,-21.2,-175.2,84.2,79,75,10.29,TO,1607298435
122,ambilobe,-13.2,49.05,74.77,83,44,2.91,MG,1607298264
123,moussoro,13.64,16.49,77.77,17,1,9.78,TD,1607298436
124,port alfred,-33.59,26.89,68.85,90,100,24.74,ZA,1607298264
125,port blair,11.67,92.75,78.98,76,10,10.54,IN,1607298343
126,bredasdorp,-34.53,20.04,64.4,88,100,18.34,ZA,1607298261
127,musoma,-1.5,33.8,67.8,82,25,6.73,TZ,1607298437
128,geraldton,-28.77,114.6,73.4,33,0,18.34,AU,1607298437
129,luwuk,-0.95,122.79,83.97,68,100,1.59,ID,1607298437
130,vostok,46.49,135.88,8.11,96,99,4.72,RU,1607298438
131,broome,42.25,-75.83,28.0,79,90,6.93,US,1607298279
132,novikovo,51.15,37.89,17.38,91,0,11.1,RU,1607298501
133,catamarca,-28.47,-65.79,61.0,78,12,3.0,AR,1607298501
134,george town,5.41,100.34,78.8,88,20,1.12,MY,1607298215
135,moree,-29.47,149.85,77.0,36,90,9.17,AU,1607298501
136,hobart,-42.88,147.33,57.99,54,75,16.11,AU,1607298501
137,avarua,-21.21,-159.78,84.2,74,93,14.99,CK,1607298261
138,georgetown,5.41,100.34,78.8,88,20,1.12,MY,1607298261
139,honiara,-9.43,159.95,87.8,74,20,8.05,SB,1607298502
140,inirida,3.87,-67.92,72.63,96,100,0.2,CO,1607298503
141,guapi,2.57,-77.89,75.97,93,100,4.41,CO,1607298503
142,vestmannaeyjar,63.44,-20.27,42.85,80,100,33.22,IS,1607298503
143,hermanus,-34.42,19.23,66.0,87,99,8.99,ZA,1607298504
144,anadyr,64.75,177.48,24.8,73,75,6.71,RU,1607298275
145,matay,28.42,30.78,60.64,32,0,9.64,EG,1607298504
146,moron,-34.65,-58.62,69.01,57,0,5.99,AR,1607298504
147,mumford,5.26,-0.76,79.54,83,1,10.0,GH,1607298507
148,gladstone,-23.85,151.25,86.0,48,70,13.87,AU,1607298508
149,iquique,-20.22,-70.14,68.0,68,0,12.75,CL,1607298460
150,souillac,-20.52,57.52,77.0,88,75,12.75,MU,1607298508
151,tuktoyaktuk,69.45,-133.04,-2.2,84,40,12.75,CA,1607298508
152,allapalli,19.42,80.07,57.92,69,3,1.88,IN,1607298508
153,tutoia,-2.76,-42.27,81.32,79,100,14.27,BR,1607298509
154,general roca,-39.03,-67.58,89.6,22,0,9.17,AR,1607298509
155,pevek,69.7,170.31,3.31,94,99,2.28,RU,1607298509
156,paramonga,-10.67,-77.83,66.76,83,98,6.29,PE,1607298509
157,butaritari,3.07,172.79,81.34,79,29,13.87,KI,1607298509
158,gwadar,25.12,62.33,74.25,78,0,3.04,PK,1607298509
159,ilulissat,69.22,-51.1,23.0,53,100,14.99,GL,1607298510
160,grand gaube,-20.01,57.66,77.0,80,14,7.0,MU,1607298510
161,riviere-au-renard,49.0,-64.4,35.6,100,90,16.11,CA,1607298510
162,pimenta bueno,-11.67,-61.19,74.61,92,98,2.91,BR,1607298510
163,zhicheng,30.3,111.5,41.0,87,95,3.69,CN,1607298511
164,palmer,42.16,-72.33,30.99,58,20,9.17,US,1607298511
165,vila velha,-20.33,-40.29,78.8,78,40,13.87,BR,1607298261
166,atambua,-9.11,124.89,79.3,78,100,2.28,ID,1607298511
167,preveza,38.95,20.75,63.0,55,90,9.17,GR,1607298511
168,jumla,29.27,82.18,38.05,56,0,4.09,NP,1607298511
169,shadegan,30.65,48.66,59.0,93,0,4.7,IR,1607298512
170,portland,45.52,-122.68,48.0,87,90,9.17,US,1607298112
171,fortuna,40.6,-124.16,55.99,73,31,1.01,US,1607298512
172,teguise,29.06,-13.56,60.8,72,40,9.17,ES,1607298489
173,maceio,-9.67,-35.74,75.2,83,20,5.82,BR,1607298239
174,pisco,-13.7,-76.22,68.0,77,0,19.46,PE,1607298265
175,kruisfontein,-34.0,24.73,66.0,94,100,5.99,ZA,1607298444
176,fort nelson,58.81,-122.7,24.8,85,75,2.17,CA,1607298304
177,meadow lake,34.8,-106.54,55.4,17,1,4.7,US,1607298513
178,pacific grove,36.62,-121.92,57.0,87,20,4.7,US,1607298513
179,kotlas,61.26,46.66,26.62,96,98,9.69,RU,1607298573
180,kieta,-6.22,155.63,85.69,67,26,3.83,PG,1607298573
181,mizoch,50.4,26.15,30.0,91,0,20.62,UA,1607298574
182,bethel,41.37,-73.41,32.0,64,0,1.99,US,1607298574
183,victor harbor,-35.57,138.62,57.0,73,72,1.99,AU,1607298276
184,kurumkan,54.3,110.3,3.47,84,16,4.12,RU,1607298574
185,bambous virieux,-20.34,57.76,77.0,88,75,12.75,MU,1607298574
186,katsuura,35.13,140.3,51.01,76,20,11.41,JP,1607298575
187,mende,44.67,3.5,26.98,100,92,4.63,FR,1607298575
188,athabasca,54.72,-113.29,35.6,51,0,3.36,CA,1607298412
189,byron bay,-28.65,153.62,80.6,74,100,6.93,AU,1607298575
190,caninde,-4.36,-39.31,79.03,66,91,3.33,BR,1607298575
191,ixtapa,20.7,-105.2,77.0,73,90,6.93,MX,1607298575
192,tuatapere,-46.13,167.68,64.74,46,21,9.89,NZ,1607298579
193,syava,58.01,46.32,17.64,92,8,7.16,RU,1607298580
194,roanoke rapids,36.46,-77.65,39.0,100,1,1.21,US,1607298580
195,mount gambier,-37.83,140.77,53.6,71,40,18.34,AU,1607298547
196,sisimiut,66.94,-53.67,25.38,95,99,14.97,GL,1607298580
197,ust-nera,64.57,143.2,-29.29,74,90,3.27,RU,1607298580
198,hilo,19.73,-155.09,84.2,62,20,14.99,US,1607298581
199,saint-francois,46.42,3.91,37.99,100,90,2.24,FR,1607298581
200,kodiak,57.79,-152.41,42.8,87,90,17.22,US,1607298581
201,clyde river,70.47,-68.59,3.2,91,90,5.14,CA,1607298581
202,sao joao da barra,-21.64,-41.05,75.29,89,100,12.88,BR,1607298581
203,sitka,57.05,-135.33,48.2,81,90,6.93,US,1607298376
204,ostrovnoy,68.05,39.51,28.76,91,100,6.24,RU,1607298582
205,krasnoarmeysk,51.02,45.7,8.08,96,56,5.61,RU,1607298582
206,alugan,12.22,125.48,82.89,86,100,8.48,PH,1607298582
207,valparaiso,-33.04,-71.63,57.2,82,0,8.05,CL,1607298582
208,norman wells,65.28,-126.83,-0.4,84,75,2.24,CA,1607298582
209,kautokeino,69.01,23.04,22.12,97,100,7.23,NO,1607298582
210,taywarah,33.35,64.42,31.17,100,100,2.73,AF,1607298583
211,yerbogachen,61.28,108.01,8.42,94,100,9.57,RU,1607298583
212,nesterov,54.63,22.57,32.2,87,100,19.73,RU,1607298583
213,san quintin,30.48,-115.95,65.43,45,19,9.22,MX,1607298583
214,ilyich,40.85,68.51,23.4,88,77,6.33,KZ,1607298583
215,mehamn,71.04,27.85,28.36,93,97,5.37,NO,1607298583
216,tevaitoa,-16.78,-151.5,81.68,69,100,7.49,PF,1607298584
217,pangnirtung,66.15,-65.71,1.26,88,99,2.13,CA,1607298584
218,kalabo,-14.97,22.68,69.85,91,98,4.83,ZM,1607298584
219,tando muhammad khan,25.12,68.54,70.79,37,0,6.35,PK,1607298584
220,new norfolk,-42.78,147.06,57.99,59,88,7.0,AU,1607298561
221,morant bay,17.88,-76.41,82.4,74,20,16.11,JM,1607298546
222,tiznit,29.58,-9.5,52.81,60,0,3.94,MA,1607298496
223,ormara,25.21,64.64,75.36,71,0,4.56,PK,1607298585
224,mahebourg,-20.41,57.7,77.0,88,75,12.75,MU,1607298372
225,san nicolas,18.17,120.6,75.2,94,40,2.24,PH,1607298588
226,talnakh,69.49,88.4,12.2,85,90,20.13,RU,1607298648
227,labuhan,-6.88,112.21,81.55,82,98,14.34,ID,1607298648
228,mae hong son,19.3,97.97,61.25,84,0,1.5,TH,1607298648
229,dakar,14.69,-17.44,77.0,69,0,13.87,SN,1607298649
230,mocuba,-16.84,36.99,74.95,93,100,2.13,MZ,1607298649
231,bonnyville,54.27,-110.73,32.0,92,5,6.93,CA,1607298649
232,verkhoshizhemye,58.01,49.1,14.99,93,64,7.61,RU,1607298649
233,lohja,60.25,24.07,37.99,89,100,7.0,FI,1607298653
234,namtsy,62.72,129.67,-18.4,75,100,8.95,RU,1607298653
235,pirapozinho,-22.28,-51.5,78.8,69,40,8.05,BR,1607298653
236,ribeira grande,38.52,-28.7,60.26,67,72,5.77,PT,1607298653
237,zheleznodorozhnyy,55.75,38.0,16.0,92,0,4.47,RU,1607298653
238,puerto colombia,10.99,-74.95,82.4,83,40,10.29,CO,1607298654
239,great yarmouth,52.61,1.73,34.0,72,93,4.7,GB,1607298654
240,vao,-22.67,167.48,77.2,83,31,16.78,NC,1607298654
241,cordoba,-31.41,-64.18,71.6,43,0,14.99,AR,1607298581
242,manono,-7.3,27.42,68.29,95,33,2.24,CD,1607298654
243,impfondo,1.64,18.07,74.3,75,71,2.42,CG,1607298655
244,andenes,69.31,16.12,33.01,79,83,5.82,NO,1607298655
245,homestead,25.47,-80.48,75.2,78,1,3.36,US,1607298589
246,torbay,47.67,-52.73,48.99,100,90,13.87,CA,1607298656
247,luanda,-8.84,13.23,77.0,88,75,6.93,AO,1607298495
248,srednekolymsk,67.45,153.68,-23.89,86,84,1.01,RU,1607298656
249,rio gallegos,-51.62,-69.22,71.6,30,40,23.04,AR,1607298656
250,walvis bay,-22.96,14.51,61.0,87,0,2.66,NA,1607298656
251,asyut,27.18,31.18,57.2,41,0,6.93,EG,1607298656
252,vizinga,61.07,50.1,24.48,96,97,8.39,RU,1607298657
253,nur,52.67,22.32,36.0,68,100,8.99,PL,1607298657
254,airai,-8.93,125.41,67.32,98,100,2.08,TL,1607298658
255,acari,-15.43,-74.62,69.91,65,95,3.27,PE,1607298659
256,beyneu,45.32,55.2,10.69,91,0,9.66,KZ,1607298660
257,ziarat,30.38,67.73,36.39,79,1,2.75,PK,1607298660
258,vila do maio,15.13,-23.22,75.2,73,40,16.11,CV,1607298660
259,san cristobal,7.77,-72.22,82.4,69,40,5.82,VE,1607298660
260,port hardy,50.7,-127.42,50.0,76,90,24.16,CA,1607298600
261,pervomayskiy,53.25,40.29,18.57,90,0,5.66,RU,1607298663
262,bengkulu,-3.8,102.27,76.03,87,98,5.75,ID,1607298663
263,port lincoln,-34.73,135.87,59.05,60,70,22.91,AU,1607298654
264,katangli,51.71,143.23,11.61,88,37,7.65,RU,1607298667
265,hokitika,-42.72,170.97,63.28,80,76,8.43,NZ,1607298668
266,walbrzych,50.77,16.28,45.0,66,94,9.42,PL,1607298668
267,saint george,37.1,-113.58,53.01,17,1,1.61,US,1607298668
268,turayf,31.67,38.66,46.4,100,0,4.7,SA,1607298669
269,beringovskiy,63.05,179.32,18.34,94,89,4.94,RU,1607298729
270,qaqortoq,60.72,-46.03,26.6,73,58,1.12,GL,1607298729
271,hohhot,40.81,111.65,-4.0,70,0,6.71,CN,1607298729
272,cahabon,15.57,-89.82,68.0,77,75,2.1,GT,1607298730
273,samarai,-10.62,150.67,84.6,74,94,11.86,PG,1607298731
274,viedma,-40.81,-63.0,82.99,20,49,1.99,AR,1607298731
275,atakpame,7.53,1.13,76.62,79,2,5.68,TG,1607298732
276,formosa,-26.18,-58.18,75.2,64,0,4.7,AR,1607298732
277,athens,37.98,23.72,60.01,87,75,4.76,GR,1607298698
278,muborak,39.26,65.15,35.1,70,100,7.47,UZ,1607298733
279,mar del plata,-38.0,-57.56,64.4,77,0,14.99,AR,1607298550
280,yar-sale,66.83,70.83,26.87,95,57,19.3,RU,1607298734
281,madisonville,37.33,-87.5,42.8,70,90,9.17,US,1607298734
282,imbituba,-28.24,-48.67,66.2,93,90,16.11,BR,1607298734
283,nuuk,64.18,-51.72,30.2,80,91,3.36,GL,1607298734
284,matara,5.95,80.54,75.04,88,60,4.0,LK,1607298734
285,nadym,65.53,72.52,25.61,95,90,23.35,RU,1607298735
286,mujiayingzi,42.12,118.78,0.54,85,0,8.34,CN,1607298735
287,trelew,-43.25,-65.31,86.92,16,93,9.44,AR,1607298447
288,olinda,-8.01,-34.86,78.8,69,75,8.05,BR,1607298735
289,gouyave,12.16,-61.73,78.8,83,20,11.41,GD,1607298735
290,namibe,-15.2,12.15,66.45,76,54,7.9,AO,1607298736
291,nome,64.5,-165.41,14.0,51,1,9.17,US,1607298736
292,dingle,11.0,122.67,79.45,88,100,5.23,PH,1607298736
293,hasaki,35.73,140.83,44.6,100,20,5.82,JP,1607298736
294,tura,25.52,90.22,59.54,81,0,2.46,IN,1607298736
295,sabang,5.89,95.32,80.35,79,100,10.51,ID,1607298737
296,porto seguro,-16.45,-39.06,77.0,78,40,5.82,BR,1607298538
297,abu dhabi,24.47,54.37,77.0,78,0,13.87,AE,1607298737
298,yulara,-25.24,130.99,78.8,16,77,18.34,AU,1607298737
299,moindou,-21.69,165.68,89.6,49,75,9.17,NC,1607298738
300,cabedelo,-6.98,-34.83,78.8,78,0,8.05,BR,1607298739
301,san isidro,-12.12,-77.05,68.0,77,75,13.87,PE,1607298740
302,santa cruz,-17.8,-63.17,78.8,57,20,6.93,BO,1607298740
303,maraba,-5.37,-49.12,78.8,100,0,0.89,BR,1607298740
304,manjeshwar,12.72,74.89,78.8,65,41,8.84,IN,1607298740
305,kroya,-7.63,109.25,80.42,79,69,2.51,ID,1607298551
306,shimoda,34.67,138.95,55.4,87,40,5.82,JP,1607298741
307,juquitiba,-23.93,-47.07,68.0,82,75,8.05,BR,1607298741
308,sechura,-5.56,-80.82,71.71,71,74,16.8,PE,1607298741
309,mabaruma,8.2,-59.78,74.48,97,44,4.09,GY,1607298741
310,krasnoselkup,65.7,82.47,14.97,96,100,13.76,RU,1607298742
311,yendi,9.44,-0.01,84.0,34,41,3.89,GH,1607298742
312,teresopolis,-22.41,-42.97,77.0,94,90,9.17,BR,1607298742
313,khatanga,71.97,102.5,-16.94,88,82,5.23,RU,1607298742
314,borda da mata,-22.27,-46.17,70.0,93,100,4.45,BR,1607298726
315,oranjemund,-28.55,16.43,64.06,79,99,7.65,NA,1607298807
316,klyuchi,52.27,79.17,-0.94,92,89,2.42,RU,1607298807
317,cotofanesti,46.15,26.98,32.0,90,90,4.7,RO,1607298807
318,najran,17.49,44.13,64.4,63,0,1.9,SA,1607298807
319,sao gabriel da cachoeira,-0.13,-67.09,74.8,94,14,1.74,BR,1607298807
320,mongo,12.18,18.69,73.4,21,93,3.49,TD,1607298808
321,bolshoye murashkino,55.78,44.78,16.34,91,0,6.67,RU,1607298808
322,da lat,11.95,108.44,61.38,95,99,5.08,VN,1607298808
323,hervey bay,-25.3,152.85,86.0,58,40,19.46,AU,1607298808
324,arraial do cabo,-22.97,-42.03,75.2,100,75,11.41,BR,1607298809
325,san rafael,-34.62,-68.33,78.26,26,4,13.73,AR,1607298555
326,zhigansk,66.77,123.37,-9.17,89,100,14.25,RU,1607298809
327,dosso,13.05,3.19,78.62,21,19,6.17,NE,1607298809
328,luba,3.46,8.55,77.0,100,20,5.82,GQ,1607298809
329,ancud,-41.87,-73.82,64.4,63,0,5.82,CL,1607298810
330,gat,31.61,34.76,59.0,100,0,3.0,IL,1607298813
331,mattawa,46.74,-119.9,37.99,85,90,5.82,US,1607298813
332,the valley,18.22,-63.06,79.0,74,20,9.17,AI,1607298769
333,ponferrada,42.55,-6.6,48.99,93,100,6.67,ES,1607298684
334,severo-kurilsk,50.68,156.12,27.41,92,100,10.71,RU,1607298814
335,rocha,-34.48,-54.33,53.15,83,23,4.74,UY,1607298814
336,kahului,20.89,-156.47,86.0,55,40,8.05,US,1607298814
337,san juan,-31.54,-68.54,80.98,25,5,7.23,AR,1607298639
338,ukiah,39.15,-123.21,62.6,42,1,5.82,US,1607298732
339,masuguru,-11.37,38.42,75.33,76,0,2.39,TZ,1607298815
340,fairbanks,64.84,-147.72,3.2,77,90,5.82,US,1607298690
341,kirakira,-10.45,161.92,83.89,73,97,3.8,SB,1607298815
342,vanderhoof,54.02,-124.02,37.56,85,100,9.33,CA,1607298815
343,auki,-8.77,160.7,83.88,77,22,1.83,SB,1607298816
344,yumen,40.28,97.2,9.61,91,41,5.37,CN,1607298816
345,logon,11.33,124.11,81.39,78,99,5.39,PH,1607298816
346,conroe,30.31,-95.46,60.8,44,1,6.93,US,1607298811
347,esperance,-33.87,121.9,60.8,59,90,6.93,AU,1607298816
348,taoudenni,22.68,-3.98,58.41,40,0,4.5,ML,1607298816
349,kununurra,-15.77,128.73,86.0,84,40,3.36,AU,1607298817
350,hermon,44.81,-68.91,28.4,74,90,13.87,US,1607298817
351,maniitsoq,65.42,-52.9,25.97,98,100,13.69,GL,1607298817
352,smithers,54.78,-127.17,42.8,81,90,11.41,CA,1607298797
353,sangar,63.92,127.47,-9.45,89,100,12.46,RU,1607298817
354,bubaque,11.28,-15.83,82.35,66,0,14.12,GW,1607298818
355,lavrentiya,65.58,-171.0,14.92,93,1,10.69,RU,1607298521
356,waipawa,-41.41,175.52,66.2,88,100,23.04,NZ,1607298821
357,namatanai,-3.67,152.43,83.59,75,59,8.08,PG,1607298821
358,nuzvid,16.78,80.85,66.87,77,77,6.17,IN,1607298626
359,saint-augustin,51.23,-58.65,35.29,93,100,21.56,CA,1607298821
360,buin,-33.73,-70.75,78.8,26,0,8.05,CL,1607298850
361,caohe,30.23,115.43,46.0,74,100,2.95,CN,1607298882
362,aktau,43.65,51.2,8.6,84,0,20.13,KZ,1607298883
363,vardo,70.37,31.11,33.53,85,100,3.94,NO,1607298873
364,beroroha,-21.67,45.17,74.97,81,7,2.95,MG,1607298885
365,nizhniy bestyakh,61.96,129.91,-18.4,75,100,8.95,RU,1607298885
366,harwich,51.94,1.28,28.4,100,90,4.7,GB,1607298874
367,pueblo,38.25,-104.61,60.8,12,1,5.82,US,1607298777
368,lata,40.16,-8.33,51.01,94,95,5.01,PT,1607298886
369,sri aman,1.24,111.46,75.2,100,100,1.28,MY,1607298736
370,kavaratti,10.57,72.64,82.56,76,91,13.6,IN,1607298886
371,gamba,-2.65,10.0,76.87,89,100,3.96,GA,1607298886
372,verkhnevilyuysk,63.45,120.32,-5.73,90,100,6.87,RU,1607298887
373,coquimbo,-29.95,-71.34,57.2,82,75,11.41,CL,1607298887
374,sept-iles,50.2,-66.38,28.99,79,100,20.8,CA,1607298822
375,virginia beach,36.85,-75.98,44.01,60,20,3.31,US,1607298716
376,hualmay,-11.1,-77.61,66.65,83,97,7.05,PE,1607298887
377,emba,48.83,58.14,1.47,91,0,5.68,KZ,1607298887
378,chimoio,-19.12,33.48,66.2,100,75,3.53,MZ,1607298888
379,merauke,-8.47,140.33,84.24,75,99,7.61,ID,1607298888
380,biltine,14.53,20.92,74.59,19,35,8.46,TD,1607298888
381,cayenne,4.93,-52.33,78.8,100,0,3.36,GF,1607298888
382,mangrol,21.12,70.12,73.0,53,0,8.46,IN,1607298888
383,gazojak,41.19,61.4,20.39,78,32,10.65,TM,1607298888
384,akropong,5.97,-0.09,82.4,83,40,10.29,GH,1607298889
385,rapid valley,44.06,-103.15,51.8,23,1,3.36,US,1607298889
386,zaysan,47.47,84.87,4.59,91,51,1.74,KZ,1607298881
387,sekoma,-24.4,23.88,72.01,62,24,12.91,BW,1607298889
388,ponta delgada,37.73,-25.67,57.2,82,75,6.93,PT,1607298889
389,rocky mountain house,52.37,-114.92,50.0,34,21,2.24,CA,1607298879
390,mandalgovi,45.76,106.27,-4.97,85,59,12.41,MN,1607298673
391,bullhead city,35.15,-114.57,68.0,11,40,9.17,US,1607298890
392,regina,50.45,-104.62,33.8,68,5,10.29,CA,1607298890
393,sorland,67.67,12.69,36.86,86,99,7.85,NO,1607298894
394,barra do garcas,-15.89,-52.26,74.1,84,73,2.17,BR,1607298894
395,margate,51.38,1.39,44.01,79,47,1.01,GB,1607298894
396,shitanjing,39.23,106.34,8.73,85,0,3.15,CN,1607298894
397,lorengau,-2.02,147.27,85.93,64,100,6.85,PG,1607298894
398,reyes,-14.32,-67.38,69.78,86,100,1.97,BO,1607298895
399,otane,-39.88,176.63,71.01,63,70,11.01,NZ,1607298895
400,richards bay,-28.78,32.04,70.34,92,85,5.7,ZA,1607298880
401,thinadhoo,0.53,72.93,82.24,78,98,16.62,MV,1607298895
402,alice springs,-23.7,133.88,77.0,36,75,8.05,AU,1607298696
403,korkmaskala,43.02,47.29,39.2,81,90,13.42,RU,1607298895
404,panhala,16.82,74.12,61.11,71,100,4.97,IN,1607298956
405,ninghai,29.29,121.42,57.0,85,87,3.98,CN,1607298956
406,leshukonskoye,64.9,45.76,33.17,95,100,7.4,RU,1607298956
407,znamenskoye,57.13,73.83,6.3,93,92,8.99,RU,1607298956
408,piracanjuba,-17.3,-49.02,75.29,70,92,3.58,BR,1607298957
409,kaeo,-35.1,173.78,77.0,64,91,11.01,NZ,1607298756
410,palmerston,-12.49,130.98,89.01,74,75,8.05,AU,1607298957
411,belyy yar,53.6,91.39,-0.4,84,40,2.24,RU,1607298957
412,batemans bay,-35.72,150.18,73.99,45,0,11.99,AU,1607298834
413,mahenge,-8.68,36.72,64.96,100,17,3.24,TZ,1607298958
414,havoysund,71.0,24.66,30.2,63,0,12.75,NO,1607298958
415,lakheri,25.67,76.17,63.05,44,0,2.95,IN,1607298958
416,puerto leguizamo,-0.19,-74.78,74.01,95,85,1.59,CO,1607298958
417,kimbe,-5.55,150.14,88.93,57,68,3.6,PG,1607298958
418,cherskiy,68.75,161.3,-1.46,93,87,2.28,RU,1607298959
419,rumuruti,0.27,36.54,56.37,90,6,5.48,KE,1607298959
420,ilebo,-4.32,20.58,69.58,95,83,1.3,CD,1607298959
421,bambanglipuro,-7.95,110.28,80.73,78,100,3.78,ID,1607298959
422,zhuhai,22.28,113.57,64.4,68,20,13.87,CN,1607298802
423,pedasi,7.53,-80.03,79.75,84,70,5.37,PA,1607298960
424,itoman,26.12,127.67,71.6,88,75,12.75,JP,1607298960
425,nouakchott,18.09,-15.98,68.0,42,0,12.75,MR,1607298737
426,dongsheng,39.82,109.98,2.46,92,0,6.53,CN,1607298960
427,minab,27.15,57.08,77.0,83,75,9.17,IR,1607298961
428,arroyo,41.61,-4.8,45.0,93,90,20.8,ES,1607298961
429,requena,39.49,-1.1,39.0,80,3,3.0,ES,1607298961
430,sapa,5.15,120.32,82.71,75,66,0.58,PH,1607298961
431,nagapattinam,10.77,79.83,77.0,88,100,5.73,IN,1607298961
432,marsa matruh,31.35,27.25,55.4,54,0,5.82,EG,1607298961
433,laishevo,55.4,49.55,-2.2,84,0,6.71,RU,1607298962
434,husavik,66.04,-17.34,15.8,78,0,3.36,IS,1607298963
435,abu samrah,35.3,37.18,50.85,71,0,3.58,SY,1607298964
436,pangkalanbuun,-2.68,111.62,79.23,85,91,2.26,ID,1607298964
437,asha,55.0,57.27,7.97,91,10,3.85,RU,1607298964
438,pipri,19.8,75.53,56.66,54,1,2.77,IN,1607298964
439,coahuayana,18.73,-103.68,75.2,69,90,11.41,MX,1607298964
440,flinders,-34.58,150.86,77.0,40,0,8.01,AU,1607298965
441,chilca,-12.52,-76.74,68.0,77,75,13.87,PE,1607298708
442,alofi,-19.06,-169.92,86.0,70,75,13.87,NU,1607298965
443,santa vitoria do palmar,-33.52,-53.37,58.32,68,8,6.69,BR,1607298965
444,nyeri,-0.42,36.95,53.37,88,20,3.47,KE,1607298965
445,ampanihy,-24.7,44.75,69.51,90,92,5.39,MG,1607298856
446,plock,52.55,19.71,35.6,80,75,16.11,PL,1607298866
447,ashington,50.93,-0.39,39.0,3,27,4.79,GB,1607298966
448,risalpur,34.06,71.99,53.6,66,40,4.7,PK,1607298989
449,terrace bay,48.78,-87.1,28.4,92,94,3.36,CA,1607299029
450,christchurch,-43.53,172.63,80.6,26,99,20.8,NZ,1607298897
451,illapel,-31.63,-71.17,59.0,70,0,2.71,CL,1607299029
452,tumen,42.97,129.84,21.78,80,0,11.25,CN,1607298731
453,polunochnoye,60.87,60.42,23.27,96,45,2.84,RU,1607299030
454,acarau,-2.89,-40.12,80.06,80,99,16.78,BR,1607299030
455,simbahan,6.3,120.58,83.14,74,80,5.5,PH,1607299030
456,sola,-13.88,167.55,87.8,74,40,6.2,VU,1607298991
457,cananeia,-25.01,-47.93,70.29,91,100,13.38,BR,1607299031
458,danjiangkou,32.54,111.51,43.11,79,81,2.04,CN,1607299031
459,bangangte,5.14,10.52,62.44,95,90,3.85,CM,1607299031
460,te anau,-45.42,167.72,59.13,58,24,10.22,NZ,1607299031
461,hearst,49.68,-83.67,23.0,92,92,2.24,CA,1607299031
462,lagoa,39.05,-27.98,60.53,74,3,8.7,PT,1607299032
463,pahrump,36.21,-115.98,57.99,11,56,1.99,US,1607299032
464,ugoofaaru,5.67,73.0,81.54,81,46,12.46,MV,1607299032
465,nioaque,-21.14,-55.83,73.69,72,92,4.14,BR,1607299032
466,la plata,-34.92,-57.95,64.99,58,0,1.99,AR,1607299032
467,kathmandu,27.72,85.32,46.4,100,20,2.24,NP,1607298794
468,ust-maya,60.42,134.53,-10.86,89,100,4.97,RU,1607299033
469,touros,-5.2,-35.46,78.8,83,40,6.93,BR,1607299033
470,eyl,7.98,49.82,75.07,78,0,7.65,SO,1607299033
471,reforma,18.1,-91.02,72.1,96,75,9.71,MX,1607299033
472,latur,18.4,76.58,59.31,57,59,3.71,IN,1607299034
473,doume,4.23,13.45,68.5,51,97,1.34,CM,1607299034
474,sokoni,-6.43,39.55,80.89,71,0,5.66,TZ,1607299037
475,prince george,53.92,-122.75,41.0,60,90,13.87,CA,1607298897
476,kushima,31.46,131.23,51.8,87,75,6.93,JP,1607299037
477,bukama,-9.2,25.85,68.14,93,95,1.99,CD,1607298978
478,lerwick,60.15,-1.15,44.6,81,34,12.75,GB,1607298768
479,tlaxco,19.62,-98.12,66.2,48,75,11.41,MX,1607299038
480,craig,40.52,-107.55,46.4,24,1,3.36,US,1607299038
481,tuensang,26.28,94.83,53.51,81,42,1.41,IN,1607299038
482,etchoropo,26.77,-109.67,73.99,35,0,5.01,MX,1607299038
483,eureka,40.8,-124.16,55.99,66,1,14.99,US,1607298828
484,jurado,7.11,-77.76,78.21,87,94,0.31,CO,1607299038
485,makasar,-5.14,119.42,78.8,83,75,9.17,ID,1607298912
486,muisne,0.6,-80.03,80.6,78,75,10.29,EC,1607299039
487,agadez,19.75,10.25,68.83,25,0,6.49,NE,1607299039
488,wakefield,53.68,-1.5,41.0,97,85,2.17,GB,1607299039
489,tonantins,-2.87,-67.8,74.89,95,70,1.39,BR,1607298777
490,polyarnyy,69.2,33.45,21.2,100,75,6.89,RU,1607299039
491,udachnyy,66.42,112.4,-7.6,76,90,11.18,RU,1607299040
492,marawi,8.0,124.29,75.99,95,86,5.01,PH,1607299008
493,kruje,41.51,19.79,55.4,82,90,4.7,AL,1607298975
494,aklavik,68.22,-135.01,-0.4,77,51,5.82,CA,1607299040
495,abaza,52.66,90.09,9.46,88,100,4.27,RU,1607299040
496,hammelburg,50.12,9.9,35.01,96,100,2.08,DE,1607299101
497,senador guiomard,-10.15,-67.74,73.4,100,40,2.24,BR,1607299101
498,hamilton,39.18,-84.53,37.99,69,90,6.93,US,1607299101
499,shache,38.42,77.24,21.58,95,100,6.13,CN,1607299101
500,varia,44.57,-0.11,41.0,100,10,4.0,FR,1607299101
501,meybod,32.25,54.02,44.6,93,90,6.93,IR,1607299102
502,landeck,47.13,10.56,33.01,92,90,9.17,AT,1607299102
503,burnie,-41.07,145.92,55.99,66,16,11.01,AU,1607299102
504,trimbak,19.93,73.55,60.48,46,0,6.91,IN,1607299102
505,oriximina,-1.77,-55.87,79.03,78,94,3.27,BR,1607298858
506,buchanan,5.88,-10.05,77.0,94,75,6.51,LR,1607299103
507,ginda,30.69,78.49,46.11,41,14,6.22,IN,1607299103
508,taksimo,56.34,114.88,-1.28,86,95,1.79,RU,1607299103
509,boditi,6.97,37.87,58.21,66,29,3.33,ET,1607299103
510,mont-dore,-22.28,166.58,86.0,99,51,13.78,NC,1607299103
511,marsh harbour,26.54,-77.06,75.45,76,97,12.35,BS,1607299104
512,kallithea,37.95,23.7,60.01,87,75,6.44,GR,1607299104
513,sakakah,29.97,40.21,48.2,76,0,6.93,SA,1607299104
514,bairiki,1.33,172.98,86.0,70,75,11.41,KI,1607299104
515,birao,10.28,22.79,69.55,23,14,5.37,CF,1607299104
516,wencheng,33.06,113.8,39.02,78,54,3.62,CN,1607299104
517,buala,-8.14,159.59,84.04,74,64,5.66,SB,1607299105
518,kudahuvadhoo,2.67,72.89,82.45,77,100,11.95,MV,1607298881
519,kamenka,51.32,42.77,13.44,94,0,6.98,RU,1607299105
520,ilhabela,-23.78,-45.36,72.23,89,100,15.37,BR,1607298833
521,petropavlovka,50.61,105.32,-2.61,83,19,4.54,RU,1607299105
522,khandyga,62.67,135.6,-16.49,87,100,4.23,RU,1607298855
523,half moon bay,37.46,-122.43,62.6,81,1,12.75,US,1607298884
524,zhizdra,53.75,34.74,16.05,95,0,7.11,RU,1607299106
525,caravelas,-17.71,-39.25,75.24,82,46,7.09,BR,1607299106
526,belmonte,-15.86,-38.88,77.0,78,40,5.82,BR,1607299106
527,altea,38.6,-0.05,52.0,51,35,5.01,ES,1607299106
528,bardstown,37.81,-85.47,41.0,93,90,5.82,US,1607299106
529,henties bay,-22.12,14.28,61.0,87,2,1.48,NA,1607299107
530,lardos,36.09,28.02,62.01,87,0,3.36,GR,1607299107
531,cap malheureux,-19.98,57.61,77.0,80,13,5.99,MU,1607299107
532,eusebio ayala,-25.4,-56.97,78.8,54,0,11.41,PY,1607299107
533,gisborne,-38.65,178.0,78.01,45,51,13.0,NZ,1607299107
534,ketchikan,55.34,-131.65,48.2,100,90,17.22,US,1607298901
535,evensk,61.95,159.23,7.56,85,100,4.23,RU,1607299107
536,aksu,41.12,80.26,17.85,92,46,0.76,CN,1607299108
537,college,64.86,-147.8,3.2,77,90,5.82,US,1607299108
538,palestina,31.92,35.2,59.0,82,40,3.36,PS,1607299108
539,berdigestyakh,62.1,126.7,4.39,93,100,7.4,RU,1607299108
540,buraydah,26.33,43.98,51.8,93,0,2.24,SA,1607299108
541,domoni,-12.26,44.53,78.15,78,90,7.76,KM,1607299109
542,puerto ayacucho,5.66,-67.62,74.12,94,98,0.89,VE,1607299109
543,georgiyevskoye,58.73,45.02,18.81,91,0,8.37,RU,1607299169
544,mount isa,-20.73,139.5,89.6,18,75,10.29,AU,1607299169
545,gornopravdinsk,60.05,69.9,17.33,97,100,8.1,RU,1607299169
546,itarema,-2.92,-39.92,80.02,80,100,15.79,BR,1607299169
547,lucapa,-8.42,20.74,65.97,98,100,2.64,AO,1607299170
548,havre-saint-pierre,50.23,-63.6,28.4,92,90,24.16,CA,1607299170
549,sungaipenuh,-2.08,101.38,66.27,86,90,0.65,ID,1607299170
550,shu,43.6,73.76,15.53,93,5,4.83,KZ,1607299170
551,avera,33.19,-82.53,51.8,81,1,4.9,US,1607299170
552,port macquarie,-31.43,152.92,75.2,60,97,5.82,AU,1607299170
553,calvinia,-31.47,19.78,54.25,57,9,3.74,ZA,1607299171
554,formosa do rio preto,-11.05,-45.19,74.17,64,26,0.94,BR,1607299171
555,lampitak,6.43,125.05,74.37,86,72,1.21,PH,1607299171
556,phan thiet,10.93,108.1,74.14,88,99,0.85,VN,1607298956
557,san andres,12.58,-81.7,82.4,78,40,8.05,CO,1607299171
558,bonavista,48.65,-53.11,39.2,100,100,16.89,CA,1607299172
559,sorong,-0.88,131.25,80.24,82,100,9.48,ID,1607299172
560,chernyshevskiy,63.01,112.47,-11.56,89,0,6.17,RU,1607299172
561,sovetskiy,61.36,63.58,22.14,96,27,8.25,RU,1607299172
562,soyo,-6.13,12.37,77.76,86,99,6.98,AO,1607299172
563,tessalit,20.2,1.01,63.61,39,21,5.41,ML,1607299172
564,mantua,45.17,10.78,37.0,98,93,1.01,IT,1607299172
565,sur,22.57,59.53,74.89,62,0,11.1,OM,1607299173
566,tera,14.01,0.75,80.65,17,53,8.9,NE,1607299173
567,tahta,26.77,31.5,57.2,41,0,2.24,EG,1607299173
568,nelson bay,-32.72,152.15,77.0,41,0,11.41,AU,1607299173
569,hofn,64.25,-15.21,33.44,92,100,9.44,IS,1607299173
570,bandarbeyla,9.49,50.81,74.8,79,2,7.56,SO,1607298894
