,City,Lat,Lng,Max Temp,Humidity,Cloudiness,Wind Speed,Country,Date
0,aksu,41.12,80.26,18.73,95,75,0.34,CN,1607567156
1,hobart,-42.88,147.33,62.01,44,40,17.22,AU,1607566837
2,neiafu,-18.65,-173.98,84.2,74,75,13.87,TO,1607567310
3,sobolevo,54.43,31.9,19.98,91,0,9.91,RU,1607567310
4,bethel,41.37,-73.41,33.01,97,75,5.82,US,1607567194
5,itaituba,-4.28,-55.98,74.52,93,99,1.66,BR,1607567310
6,bluff,-46.6,168.33,60.01,79,45,18.01,NZ,1607567097
7,yellowknife,62.46,-114.35,3.2,91,90,5.82,CA,1607566922
8,carnarvon,-24.87,113.63,75.2,73,40,16.11,AU,1607567178
9,isangel,-19.55,169.27,83.55,70,96,16.06,VU,1607567257
10,busselton,-33.65,115.33,93.99,9,64,11.52,AU,1607566885
11,astana,51.18,71.45,14.0,92,90,4.47,KZ,1607567260
12,cabo san lucas,22.89,-109.91,75.0,73,90,3.36,MX,1607567106
13,punta arenas,-53.15,-70.92,50.0,81,100,3.36,CL,1607567095
14,ushuaia,-54.8,-68.3,44.6,93,90,2.24,AR,1607567101
15,cafelandia,-21.8,-49.61,76.39,57,32,5.95,BR,1607567312
16,santa maria,-29.68,-53.81,69.8,83,0,4.7,BR,1607567313
17,saskylakh,71.92,114.08,-18.2,86,100,15.08,RU,1607567160
18,daoukro,7.06,-3.96,72.81,95,42,4.0,CI,1607567313
19,grindavik,63.84,-22.43,35.6,93,90,26.4,IS,1607567136
20,danielskuil,-28.19,23.54,63.5,30,0,2.55,ZA,1607567313
21,tiksi,71.69,128.87,-19.77,87,100,11.1,RU,1607567135
22,okhotsk,59.38,143.3,-6.52,90,58,10.04,RU,1607567314
23,cross lanes,38.42,-81.79,39.2,80,20,4.56,US,1607567314
24,rikitea,-23.12,-134.97,77.59,80,63,15.43,PF,1607567099
25,sturgis,41.8,-85.42,35.6,90,1,4.23,US,1607567314
26,bekhtery,46.25,32.29,33.8,89,90,11.18,UA,1607567314
27,poum,-20.23,164.02,82.18,74,37,11.63,NC,1607567315
28,leon,21.12,-101.67,60.8,44,20,6.93,MX,1607567129
29,qaanaaq,77.48,-69.36,3.42,88,100,4.0,GL,1607567099
30,mehamn,71.04,27.85,35.67,88,100,20.13,NO,1607567315
31,udachnyy,66.42,112.4,-40.0,65,0,4.47,RU,1607567315
32,khatanga,71.97,102.5,-32.17,85,49,1.59,RU,1607567182
33,anadyr,64.75,177.48,24.8,92,20,11.18,RU,1607567316
34,severo-kurilsk,50.68,156.12,27.07,87,90,22.7,RU,1607567183
35,taganak,6.08,118.3,86.0,74,20,4.7,PH,1607567316
36,esperance,-33.87,121.9,73.4,46,98,20.8,AU,1607567316
37,pontianak,-0.03,109.33,85.82,69,10,5.79,ID,1607567316
38,kavaratti,10.57,72.64,82.78,77,0,15.12,IN,1607567316
39,mataura,-46.19,168.86,60.01,79,84,18.01,NZ,1607567115
40,chalmette,29.94,-89.96,61.0,59,1,4.7,US,1607567081
41,mahebourg,-20.41,57.7,75.2,88,75,11.41,MU,1607567197
42,luderitz,-26.65,15.16,59.43,88,77,10.51,NA,1607566997
43,hermanus,-34.42,19.23,57.0,95,40,3.85,ZA,1607567101
44,port elizabeth,-33.92,25.57,64.4,93,75,4.7,ZA,1607567141
45,nikolskoye,59.7,30.79,19.99,78,0,8.95,RU,1607567174
46,nanzhang,31.78,111.84,49.03,57,52,1.9,CN,1607567378
47,baruun-urt,46.68,113.28,5.54,89,89,4.68,MN,1607567378
48,port alfred,-33.59,26.89,65.88,82,100,3.29,ZA,1607567101
49,jamestown,42.1,-79.24,37.0,100,90,8.05,US,1607566839
50,douentza,15.0,-2.95,68.77,26,0,4.94,ML,1607567378
51,kapaa,22.08,-159.32,80.6,74,75,9.17,US,1607567142
52,duvan,55.7,57.9,7.3,94,1,2.42,RU,1607567379
53,chuy,-33.7,-53.46,63.12,92,0,7.61,UY,1607567161
54,hasaki,35.73,140.83,48.0,100,75,14.99,JP,1607567253
55,tshela,-4.98,12.93,73.24,94,100,1.14,CD,1607567380
56,naze,28.37,129.48,71.6,83,75,13.87,JP,1607567380
57,jalapa,19.53,-96.92,52.23,91,41,1.9,MX,1607567380
58,aktau,43.65,51.2,10.4,78,0,4.47,KZ,1607567380
59,barrow,71.29,-156.79,-4.0,70,90,17.22,US,1607567140
60,constitucion,-35.33,-72.42,54.27,74,0,15.99,CL,1607567157
61,bubaque,11.28,-15.83,81.79,60,0,11.74,GW,1607567381
62,cape town,-33.93,18.42,62.6,88,0,6.93,ZA,1607566964
63,zeya,53.75,127.27,1.0,85,100,2.37,RU,1607567381
64,qui nhon,13.77,109.23,74.03,84,100,15.32,VN,1607567381
65,sept-iles,50.2,-66.38,24.8,85,91,3.36,CA,1607567381
66,vaini,-21.2,-175.2,82.4,78,40,14.99,TO,1607567100
67,clyde river,70.47,-68.59,12.2,92,90,2.24,CA,1607567382
68,arraial do cabo,-22.97,-42.03,74.03,87,100,6.24,BR,1607566887
69,alofi,-19.06,-169.92,77.0,88,75,19.46,NU,1607567158
70,new norfolk,-42.78,147.06,62.01,48,72,3.0,AU,1607567095
71,upernavik,72.79,-56.15,23.4,95,100,8.23,GL,1607567137
72,yerbogachen,61.28,108.01,-16.56,88,100,3.18,RU,1607567236
73,ahipara,-35.17,173.17,69.8,70,0,12.24,NZ,1607567175
74,hithadhoo,-0.6,73.08,82.09,69,100,10.0,MV,1607567097
75,gao,16.64,1.64,74.07,23,26,8.46,ML,1607567383
76,henties bay,-22.12,14.28,63.0,89,2,1.48,NA,1607567384
77,tautira,-17.73,-149.15,86.0,58,75,6.93,PF,1607567256
78,port hardy,50.7,-127.42,44.6,100,90,2.24,CA,1607567384
79,tarnobrzeg,50.57,21.68,30.0,88,36,8.01,PL,1607567384
80,chapais,49.78,-74.85,19.4,85,90,3.36,CA,1607567384
81,pevek,69.7,170.31,-7.49,90,1,3.83,RU,1607567158
82,pathein,16.78,94.73,73.44,74,0,6.13,MM,1607567384
83,carutapera,-1.2,-46.02,78.89,82,100,6.62,BR,1607567102
84,wanning,18.8,110.4,70.93,89,100,11.74,CN,1607567385
85,palmer,42.16,-72.33,33.01,97,90,4.54,US,1607567385
86,glendive,47.11,-104.71,41.0,69,1,27.51,US,1607567385
87,east london,-33.02,27.91,68.94,82,99,9.95,ZA,1607567098
88,kaitangata,-46.28,169.85,61.0,73,65,8.99,NZ,1607567138
89,yeppoon,-23.13,150.73,87.8,35,22,12.75,AU,1607567446
90,kindu,-2.95,25.95,69.46,98,100,1.99,CD,1607567446
91,chumikan,54.72,135.31,4.17,87,60,13.27,RU,1607567446
92,sitka,57.05,-135.33,37.4,81,90,5.23,US,1607567136
93,anori,-3.77,-61.64,74.61,95,29,2.13,BR,1607567446
94,karratha,-20.74,116.85,88.18,58,73,12.44,AU,1607567447
95,aitape,-3.14,142.35,85.8,66,91,6.85,PG,1607567447
96,robore,-18.33,-59.75,71.29,91,96,2.71,BO,1607567447
97,nelson bay,-32.72,152.15,87.01,51,20,10.29,AU,1607567447
98,tuktoyaktuk,69.45,-133.04,-18.4,75,75,4.7,CA,1607567103
99,albany,42.6,-73.97,34.0,75,87,4.09,US,1607567018
100,bayji,34.93,43.49,53.56,67,0,7.05,IQ,1607567448
101,gerede,40.8,32.2,34.07,89,83,6.33,TR,1607567448
102,hilo,19.73,-155.09,82.4,58,20,8.05,US,1607567096
103,manado,1.49,124.85,87.8,66,40,2.24,ID,1607567215
104,alice springs,-23.7,133.88,77.0,27,100,19.46,AU,1607567444
105,provideniya,64.38,-173.3,6.8,71,40,3.0,RU,1607567122
106,atuona,-9.8,-139.03,79.05,74,0,18.7,PF,1607567116
107,saldanha,-33.01,17.94,59.0,93,0,6.93,ZA,1607567135
108,yar-sale,66.83,70.83,5.94,94,49,14.16,RU,1607567255
109,faanui,-16.48,-151.75,79.11,78,100,15.26,PF,1607567253
110,butaritari,3.07,172.79,82.06,78,18,10.87,KI,1607567162
111,atar,20.52,-13.05,60.33,30,100,10.49,MR,1607567449
112,celestun,20.87,-90.4,67.86,65,5,7.72,MX,1607567450
113,saint-philippe,-21.36,55.77,75.2,78,90,14.99,RE,1607567102
114,souillac,-20.52,57.52,75.2,88,75,11.41,MU,1607567136
115,kahului,20.89,-156.47,86.0,48,40,9.17,US,1607567417
116,kalmunai,7.42,81.82,79.88,78,100,10.83,LK,1607567450
117,nome,64.5,-165.41,8.6,71,1,19.46,US,1607567161
118,shalakusha,62.22,40.25,18.23,93,0,5.28,RU,1607567451
119,avarua,-21.21,-159.78,84.2,66,0,12.75,CK,1607567100
120,ulladulla,-35.35,150.47,68.0,100,75,10.29,AU,1607567451
121,dikson,73.51,80.55,-11.45,86,1,2.17,RU,1607567143
122,airai,-8.93,125.41,76.5,64,100,2.51,TL,1607567118
123,jurm,36.86,70.83,29.61,69,57,6.11,AF,1607567452
124,mount isa,-20.73,139.5,98.6,7,100,8.05,AU,1607567237
125,bambous virieux,-20.34,57.76,75.99,88,75,11.41,MU,1607567163
126,kifri,34.7,44.97,55.17,57,0,7.0,IQ,1607567452
127,adrar,20.5,-10.07,56.89,31,94,10.18,MR,1607567452
128,stolin,51.89,26.85,27.63,94,100,14.38,BY,1607567453
129,san rafael,-34.62,-68.33,78.06,29,0,2.53,AR,1607567217
130,gewane,10.17,40.65,72.41,46,34,4.03,ET,1607567453
131,pisco,-13.7,-76.22,66.2,82,0,16.11,PE,1607566870
132,coracao de jesus,-16.69,-44.37,69.8,100,75,3.33,BR,1607567514
133,cidreira,-30.18,-50.21,68.34,85,1,6.73,BR,1607567220
134,ust-maya,60.42,134.53,-17.81,87,90,1.23,RU,1607567514
135,yulara,-25.24,130.99,66.2,82,90,11.41,AU,1607567138
136,pemalang,-6.9,109.37,83.79,73,79,9.15,ID,1607567514
137,namatanai,-3.67,152.43,83.89,73,86,6.24,PG,1607567216
138,verkhoyansk,67.54,133.38,-40.92,75,25,1.19,RU,1607567515
139,uglegorsk,49.08,142.03,25.88,85,28,0.98,RU,1607567515
140,puerto ayora,-0.74,-90.35,73.0,93,17,5.99,EC,1607567100
141,bredasdorp,-34.53,20.04,53.6,93,0,1.12,ZA,1607567175
142,de-kastri,51.47,140.78,15.93,82,100,3.53,RU,1607567516
143,craig,40.52,-107.55,30.2,52,1,3.89,US,1607567516
144,san patricio,28.02,-97.52,61.0,67,40,9.17,US,1607567140
145,san vicente,-26.62,-54.13,66.6,62,0,3.89,AR,1607567256
146,cajati,-24.74,-48.12,69.55,93,71,1.5,BR,1607567516
147,japura,-0.32,102.35,81.12,81,100,2.64,ID,1607567379
148,saint george,37.1,-113.58,51.8,15,1,2.21,US,1607567165
149,penzance,50.12,-5.54,48.2,93,95,18.34,GB,1607567517
150,ormond beach,29.29,-81.06,51.01,87,1,5.82,US,1607567517
151,lata,40.16,-8.33,54.0,96,100,5.01,PT,1607567099
152,cacoal,-11.44,-61.45,73.47,95,100,1.77,BR,1607567518
153,castro,-24.79,-50.01,58.62,88,92,2.75,BR,1607567103
154,sharlyk,52.92,54.75,9.0,89,0,7.23,RU,1607567518
155,houma,29.6,-90.72,55.99,80,0,1.99,US,1607567394
156,flinders,-34.58,150.86,75.99,63,42,11.01,AU,1607567140
157,yamada,39.47,141.95,49.87,54,100,9.73,JP,1607567519
158,torbay,47.67,-52.73,37.99,93,90,20.8,CA,1607567519
159,katangli,51.71,143.23,15.64,90,100,2.48,RU,1607567519
160,yerofey pavlovich,53.97,121.97,0.64,90,100,3.6,RU,1607567519
161,yantzaza,-3.83,-78.76,67.33,84,11,1.72,EC,1607567520
162,cockburn town,21.46,-71.14,75.2,64,75,5.82,TC,1607567520
163,maymyo,22.03,96.47,57.2,87,57,1.01,MM,1607567520
164,ancud,-41.87,-73.82,55.99,81,0,4.7,CL,1607567196
165,kupang,-10.17,123.58,89.6,59,40,13.87,ID,1607567521
166,peniche,39.36,-9.38,61.0,92,100,18.01,PT,1607567521
167,heihe,50.24,127.49,3.2,77,40,1.39,CN,1607567325
168,katobu,-4.94,122.53,81.88,85,99,4.05,ID,1607567521
169,krasnogorskoye,52.3,86.2,10.89,96,100,3.98,RU,1607567521
170,kaura namoda,12.59,6.58,71.83,22,5,7.92,NG,1607567522
171,morondava,-20.28,44.28,79.12,78,34,7.47,MG,1607567522
172,georgetown,5.41,100.34,84.2,78,20,2.24,MY,1607566818
173,castelo do piaui,-5.32,-41.55,80.02,62,95,5.53,BR,1607567522
174,jardim,-21.48,-56.14,71.2,50,16,1.83,BR,1607567311
175,gilbues,-9.83,-45.34,72.12,74,74,0.89,BR,1607567583
176,urumqi,43.8,87.6,3.2,84,0,2.24,CN,1607567562
177,dudinka,69.41,86.18,-16.6,68,95,15.66,RU,1607567583
178,menongue,-14.66,17.69,62.98,90,99,5.12,AO,1607567583
179,bagdarin,54.43,113.6,-2.25,77,100,13.82,RU,1607567584
180,contamana,-7.33,-75.02,74.26,91,23,3.09,PE,1607567584
181,ponta do sol,32.67,-17.1,62.6,72,40,9.17,PT,1607567196
182,catuday,16.29,119.81,83.66,72,3,5.88,PH,1607567584
183,general pico,-35.66,-63.76,76.53,52,0,12.19,AR,1607567584
184,shaowu,27.34,117.48,59.5,71,97,3.31,CN,1607567479
185,safford,32.83,-109.71,60.8,17,75,8.05,US,1607567404
186,tezu,27.92,96.17,70.88,40,0,2.42,IN,1607567585
187,lumphat,13.49,106.98,84.15,60,12,3.24,KH,1607567585
188,ipameri,-17.72,-48.16,69.01,84,100,3.85,BR,1607567350
189,kavieng,-2.57,150.8,83.7,72,100,5.99,PG,1607567585
190,lichinga,-13.31,35.24,66.2,93,40,10.29,MZ,1607567586
191,nangong,37.36,115.37,41.99,58,0,5.44,CN,1607567586
192,narsaq,60.92,-46.05,28.4,33,0,13.87,GL,1607567140
193,delijan,33.99,50.68,36.86,79,26,2.44,IR,1607567586
194,kedrovyy,56.17,91.82,-14.8,83,40,4.97,RU,1607567586
195,bathsheba,13.22,-59.52,78.8,74,20,12.75,BB,1607567104
196,hinton,53.4,-117.59,26.6,86,94,5.82,CA,1607567587
197,avera,33.19,-82.53,48.2,76,1,4.7,US,1607567257
198,rawson,-43.3,-65.1,58.71,64,0,11.16,AR,1607567587
199,nioro,13.35,-15.75,71.53,26,2,6.82,GM,1607567587
200,pangkalanbuun,-2.68,111.62,90.46,55,87,5.82,ID,1607567525
201,warrnambool,-38.38,142.48,62.01,64,2,1.99,AU,1607567588
202,glyadyanskoye,54.91,65.09,12.76,96,93,5.5,RU,1607567588
203,hanzhong,33.07,107.03,43.45,60,89,2.84,CN,1607567588
204,port lincoln,-34.73,135.87,65.41,63,44,21.16,AU,1607567096
205,lompoc,34.64,-120.46,55.4,54,75,3.36,US,1607567588
206,geraldton,-28.77,114.6,91.4,31,100,18.34,AU,1607567116
207,nemuro,43.32,145.57,41.0,44,20,13.87,JP,1607567099
208,oksovskiy,62.61,39.9,18.72,93,0,7.38,RU,1607567589
209,tashtyp,52.79,89.9,11.5,92,100,3.96,RU,1607567589
210,okakarara,-20.58,17.43,65.1,28,57,4.29,NA,1607567589
211,juneau,58.3,-134.42,37.99,93,90,10.29,US,1607567589
212,hay river,60.82,-115.8,3.2,84,98,7.38,CA,1607567589
213,itarema,-2.92,-39.92,79.09,79,80,13.29,BR,1607567233
214,mar del plata,-38.0,-57.56,62.01,82,0,3.36,AR,1607567136
215,victoria,22.29,114.16,71.01,72,55,5.01,HK,1607566885
216,mazyr,52.05,29.25,19.74,94,24,11.86,BY,1607567590
217,norman wells,65.28,-126.83,5.0,84,90,8.05,CA,1607567220
218,cherskiy,68.75,161.3,-4.22,85,100,4.38,RU,1607567097
219,bowen,-20.02,148.23,86.0,58,38,19.46,AU,1607567591
220,olafsvik,64.89,-23.71,34.47,90,100,32.97,IS,1607567199
221,grootfontein,-19.57,18.12,71.92,22,67,6.78,NA,1607567591
222,fairbanks,64.84,-147.72,12.99,84,75,2.24,US,1607567101
223,broome,42.25,-75.83,35.01,100,90,9.17,US,1607567651
224,churapcha,62.0,132.43,-30.44,84,100,2.73,RU,1607567651
225,ribeira grande,38.52,-28.7,63.23,90,100,17.94,PT,1607567103
226,alyangula,-13.85,136.42,91.4,59,40,13.87,AU,1607567652
227,general roca,-39.03,-67.58,69.8,56,0,11.41,AR,1607567652
228,plettenberg bay,-34.05,23.37,63.12,88,98,5.48,ZA,1607567652
229,bull savanna,17.89,-77.59,69.28,83,44,7.67,JM,1607567194
230,damietta,31.42,31.81,59.0,93,0,4.7,EG,1607567652
231,erenhot,43.65,111.98,12.88,91,76,12.55,CN,1607567653
232,oroshaza,46.57,20.67,44.01,90,100,3.0,HU,1607567653
233,codrington,-38.27,141.97,58.82,58,0,19.39,AU,1607567239
234,mizdah,31.45,12.98,48.47,59,26,13.73,LY,1607567653
235,altay,47.87,88.12,11.43,90,100,1.28,CN,1607567654
236,prince rupert,54.32,-130.32,41.0,86,1,6.93,CA,1607567654
237,grantham,52.91,-0.64,39.99,100,97,9.17,GB,1607567606
238,ust-nera,64.57,143.2,-34.38,71,50,1.99,RU,1607567218
239,lebu,-37.62,-73.65,54.03,84,0,12.8,CL,1607567100
240,padang,-0.95,100.35,78.84,79,100,7.02,ID,1607567654
241,hibbing,47.43,-92.94,32.0,86,90,3.29,US,1607567579
242,sabile,57.05,22.57,22.62,93,0,7.72,LV,1607567655
243,cabedelo,-6.98,-34.83,77.0,83,20,5.82,BR,1607567255
244,kelvington,52.17,-103.53,26.6,86,69,8.05,CA,1607567655
245,husavik,66.04,-17.34,32.0,88,90,5.82,IS,1607567155
246,mandal,25.45,74.57,68.47,36,0,1.52,IN,1607567655
247,surt,31.21,16.59,59.81,77,1,21.34,LY,1607567656
248,shatrovo,56.52,64.63,13.21,96,24,6.67,RU,1607567656
249,vao,-22.67,167.48,78.55,83,54,15.21,NC,1607567656
250,thompson,55.74,-97.86,17.6,85,75,6.93,CA,1607567119
251,acapulco,16.86,-99.89,80.6,78,40,4.7,MX,1607567119
252,chanika,-5.42,38.02,66.16,98,54,1.54,TZ,1607567657
253,redcar,54.62,-1.06,39.99,85,100,5.99,GB,1607567536
254,hofn,64.25,-15.21,41.54,93,100,18.03,IS,1607567657
255,chernaya kholunitsa,58.85,51.72,12.22,92,0,3.6,RU,1607567657
256,manavalakurichi,8.13,77.3,80.6,78,40,3.36,IN,1607567657
257,shelburne,44.08,-80.2,37.0,99,54,9.78,CA,1607567538
258,gemena,3.25,19.77,70.68,89,100,2.06,CD,1607567658
259,camana,-16.62,-72.71,65.75,75,54,6.58,PE,1607567370
260,coihaique,-45.58,-72.07,53.6,66,40,4.59,CL,1607567205
261,tasiilaq,65.61,-37.64,15.8,52,0,5.82,GL,1607567160
262,marsa matruh,31.35,27.25,51.8,71,0,10.36,EG,1607567658
263,laguna,38.42,-121.42,57.2,43,1,3.4,US,1607567218
264,vesoul,47.58,5.83,28.99,100,95,5.82,FR,1607567659
265,canutama,-6.53,-64.38,74.64,96,85,2.53,BR,1607567659
266,aranos,-24.13,19.12,62.49,39,0,9.15,NA,1607567659
267,dakar,14.69,-17.44,69.8,73,0,16.11,SN,1607567138
268,kosonsoy,41.26,71.55,33.8,86,90,2.24,UZ,1607567659
269,dingle,11.0,122.67,83.53,78,41,5.26,PH,1607567200
270,srednekolymsk,67.45,153.68,-24.77,84,78,4.83,RU,1607567215
271,klaksvik,62.23,-6.59,44.6,87,100,25.28,FO,1607567182
272,portland,45.52,-122.68,46.0,87,20,1.45,US,1607567161
273,bay roberts,47.6,-53.26,37.4,93,90,20.8,CA,1607567720
274,kuching,1.55,110.33,84.2,79,20,6.93,MY,1607567681
275,bud,39.45,-86.18,37.4,85,1,3.13,US,1607567721
276,tuatapere,-46.13,167.68,59.0,83,47,15.99,NZ,1607567721
277,vila velha,-20.33,-40.29,73.4,94,90,3.36,BR,1607567721
278,baherden,38.44,57.43,30.69,97,99,5.7,TM,1607567721
279,paamiut,61.99,-49.67,26.78,73,0,4.14,GL,1607567722
280,bengkulu,-3.8,102.27,80.13,77,56,5.03,ID,1607567158
281,tura,25.52,90.22,65.12,69,0,1.77,IN,1607567241
282,lavrentiya,65.58,-171.0,8.26,88,0,7.61,RU,1607567179
283,waynesboro,38.07,-78.89,42.8,56,1,5.82,US,1607567722
284,nambucca heads,-30.65,153.0,82.99,65,98,21.92,AU,1607567722
285,moose factory,51.26,-80.61,28.4,92,90,8.05,CA,1607567722
286,khor,47.89,134.95,18.48,90,99,5.77,RU,1607567723
287,tottori,35.5,134.23,55.4,58,75,5.82,JP,1607567504
288,kurdzhinovo,43.99,40.96,38.46,81,96,3.4,RU,1607567723
289,duluth,46.78,-92.11,37.4,69,1,3.36,US,1607567670
290,batagay,67.63,134.63,-39.39,76,23,2.91,RU,1607567724
291,richards bay,-28.78,32.04,71.56,88,87,4.61,ZA,1607567163
292,beeville,28.4,-97.75,59.0,67,1,4.7,US,1607567724
293,shimoda,34.67,138.95,53.6,81,75,13.87,JP,1607567596
294,mengyin,35.71,117.93,43.48,63,0,1.66,CN,1607567724
295,vaasa,63.1,21.62,32.0,98,90,6.93,FI,1607567725
296,vieux-habitants,16.06,-61.77,69.8,88,0,1.12,GP,1607567725
297,ambur,12.78,78.7,71.02,80,1,3.06,IN,1607567725
298,saint-augustin,51.23,-58.65,33.33,92,100,6.73,CA,1607567725
299,sao miguel do iguacu,-25.35,-54.24,73.4,78,0,3.33,BR,1607567725
300,gat,31.61,34.76,57.0,100,0,3.0,IL,1607567726
301,ratnagiri,16.98,73.3,80.69,58,77,6.62,IN,1607567726
302,sao joao da barra,-21.64,-41.05,73.17,89,100,1.28,BR,1607567726
303,mogadishu,2.04,45.34,77.47,79,4,18.41,SO,1607567028
304,sambava,-14.27,50.17,75.47,82,3,4.59,MG,1607567726
305,gambela,8.25,34.58,76.86,46,98,2.68,ET,1607567255
306,praia da vitoria,38.73,-27.07,64.4,82,20,11.21,PT,1607567180
307,lima,-12.04,-77.03,66.2,88,75,12.75,PE,1607567663
308,ilulissat,69.22,-51.1,19.4,44,98,8.05,GL,1607567727
309,ormara,25.21,64.64,74.8,59,0,6.49,PK,1607567727
310,bedele,8.46,36.35,49.93,66,79,2.08,ET,1607567727
311,zhezkazgan,47.8,67.71,0.99,88,0,3.0,KZ,1607567728
312,champasak,14.75,106.0,75.2,69,20,2.24,LA,1607567728
313,sao jose da coroa grande,-8.9,-35.15,76.46,80,89,9.06,BR,1607567728
314,bonavista,48.65,-53.11,37.0,92,86,4.7,CA,1607567163
315,inhambane,-23.86,35.38,71.55,80,0,5.23,MZ,1607567212
316,trincomalee,8.57,81.23,80.06,75,38,10.74,LK,1607567729
317,sidi ali,36.1,0.42,48.74,86,0,9.66,DZ,1607567789
318,iracoubo,5.48,-53.2,78.17,86,63,8.66,GF,1607567789
319,pacific grove,36.62,-121.92,53.01,76,1,3.36,US,1607567789
320,witu,-2.39,40.44,73.4,94,20,3.58,KE,1607567789
321,carahue,-38.7,-73.17,51.8,100,0,6.93,CL,1607567789
322,hovd,48.01,91.64,5.77,78,0,2.8,MN,1607567790
323,vila,42.03,-8.16,48.99,96,100,7.0,PT,1607567790
324,elbistan,38.21,37.2,33.94,86,0,0.38,TR,1607567790
325,biggar,55.62,-3.52,39.0,10,98,3.0,GB,1607567790
326,aksarka,66.56,67.8,11.44,91,49,4.18,RU,1607567790
327,belaya gora,68.53,146.42,-25.85,86,100,3.11,RU,1607567791
328,kudahuvadhoo,2.67,72.89,82.49,69,79,5.28,MV,1607567240
329,kodiak,57.79,-152.41,30.2,63,1,10.29,US,1607567791
330,hamilton,39.18,-84.53,42.01,80,1,2.64,US,1607567619
331,sovetskiy,61.36,63.58,15.84,95,46,5.77,RU,1607567792
332,loandjili,-4.76,11.86,76.86,88,100,0.74,CG,1607567792
333,puerto cabello,10.47,-68.01,78.28,84,78,10.13,VE,1607567792
334,jacareacanga,-6.22,-57.75,73.72,89,100,1.14,BR,1607567792
335,bandarbeyla,9.49,50.81,74.59,80,15,16.26,SO,1607567793
336,guadalupe y calvo,26.1,-106.97,46.67,95,5,3.09,MX,1607567793
337,liwale,-9.77,37.93,67.71,97,100,3.09,TZ,1607567793
338,longyearbyen,78.22,15.64,28.4,74,75,10.29,SJ,1607567793
339,nanortalik,60.14,-45.24,28.02,79,0,5.3,GL,1607567794
340,amsterdam,52.37,4.89,37.99,93,90,9.17,NL,1607567508
341,moissala,8.34,17.77,71.13,25,100,1.5,TD,1607567794
342,beyla,8.68,-8.63,69.24,81,1,3.18,GN,1607567795
343,kutum,14.2,24.67,59.14,33,0,8.16,SD,1607567795
344,blind river,46.18,-82.96,37.4,87,40,9.17,CA,1607567795
345,praia,14.92,-23.51,73.4,69,75,16.11,CV,1607567795
346,tabou,4.42,-7.35,78.62,84,97,6.4,CI,1607567795
347,northam,51.03,-4.22,48.99,97,100,1.01,GB,1607567233
348,adony,47.12,18.86,41.0,93,90,9.17,HU,1607567796
349,katyuzhanka,50.81,30.14,19.4,79,0,8.95,UA,1607567796
350,college,64.86,-147.8,9.0,84,75,2.86,US,1607567796
351,katsuura,35.13,140.3,55.99,81,75,12.75,JP,1607567796
352,severnyy,50.68,36.55,15.8,72,0,8.95,RU,1607567796
353,gisborne,-38.65,178.0,81.0,44,0,11.01,NZ,1607567797
354,narsimhapur,22.95,79.2,69.01,44,0,4.05,IN,1607567797
355,mayo,38.89,-76.51,37.4,93,1,7.18,US,1607567626
356,burley,42.54,-113.79,33.8,43,1,6.93,US,1607567798
357,athabasca,54.72,-113.29,24.8,79,5,6.93,CA,1607567232
358,zambezi,-13.54,23.1,64.81,97,100,3.04,ZM,1607567799
359,nishihara,26.18,127.76,69.8,94,75,13.87,JP,1607567567
360,baculin,7.45,126.58,86.95,59,39,4.23,PH,1607567859
361,gondanglegi,-7.75,112.01,85.41,71,100,9.62,ID,1607567860
362,denpasar,-8.65,115.22,87.8,66,20,16.11,ID,1607567774
363,nyimba,-14.56,30.81,68.72,94,100,2.71,ZM,1607567860
364,kiunga,-6.12,141.29,81.48,84,97,5.88,PG,1607567860
365,borova,50.18,30.1,19.4,79,0,8.95,UA,1607567860
366,gizo,-8.1,156.84,84.04,72,100,6.55,SB,1607567861
367,kieta,-6.22,155.63,82.99,78,100,7.4,PG,1607567861
368,nipawin,53.37,-104.0,30.2,80,1,12.75,CA,1607567861
369,mucurapo,10.67,-61.53,77.0,78,20,7.78,TT,1607567861
370,mango,27.98,-82.31,51.8,93,1,3.74,US,1607567861
371,eyl,7.98,49.82,73.26,77,0,13.02,SO,1607567862
372,brokopondo,4.75,-55.17,76.78,86,98,8.23,SR,1607567862
373,riyadh,24.69,46.72,53.6,54,0,6.93,SA,1607567641
374,leningradskiy,69.38,178.42,1.45,89,99,0.65,RU,1607567862
375,laureles,26.11,-97.49,61.0,87,1,5.82,US,1607567862
376,baft,29.23,56.61,35.87,83,62,1.72,IR,1607567863
377,la paz,-16.5,-68.15,46.4,81,75,9.17,BO,1607567732
378,san fernando,15.03,120.69,82.4,74,75,6.93,PH,1607567863
379,sarangani,5.4,125.46,84.65,74,26,16.71,PH,1607567863
380,belmonte,-15.86,-38.88,75.2,83,20,6.93,BR,1607567863
381,kericho,-0.37,35.28,54.48,88,76,4.65,KE,1607567863
382,half moon bay,37.46,-122.43,59.0,58,1,10.29,US,1607567864
383,samur,41.83,48.49,38.25,77,100,4.85,RU,1607567864
384,nizwa,22.93,57.53,56.12,84,2,1.92,OM,1607567864
385,arima,10.63,-61.28,78.01,78,20,3.76,TT,1607567583
386,buritis,-15.62,-46.42,71.38,87,100,1.41,BR,1607567864
387,shu,43.6,73.76,16.23,92,56,3.58,KZ,1607567865
388,los llanos de aridane,28.66,-17.92,64.4,82,75,11.41,ES,1607567776
389,zhangye,38.93,100.45,28.45,73,3,4.74,CN,1607567865
390,iqaluit,63.75,-68.51,19.4,73,40,6.93,CA,1607567865
391,guerrero negro,27.98,-114.06,64.15,72,12,8.79,MX,1607567865
392,samarai,-10.62,150.67,84.43,69,62,8.86,PG,1607567866
393,aklavik,68.22,-135.01,-5.8,76,100,3.36,CA,1607567866
394,saint-paul,-21.01,55.27,75.2,78,75,16.11,RE,1607567866
395,cinco esquinas,10.1,-84.17,69.8,77,0,3.36,CR,1607567866
396,muscat,23.61,58.59,71.6,64,40,4.7,OM,1607567866
397,balaipungut,1.05,101.28,82.4,74,20,5.82,ID,1607567866
398,san cristobal,7.77,-72.22,64.98,91,49,1.23,VE,1607567754
399,starkville,33.45,-88.82,51.8,81,1,5.37,US,1607567610
400,mackenzie,55.3,-123.17,30.2,86,90,11.41,CA,1607567867
401,pangnirtung,66.15,-65.71,14.7,91,100,2.86,CA,1607567867
402,merauke,-8.47,140.33,83.55,71,100,3.49,ID,1607567867
403,sume,-7.67,-36.88,69.93,85,79,13.65,BR,1607567867
404,omboue,-1.57,9.26,76.03,91,84,5.75,GA,1607567868
405,fortuna,40.6,-124.16,50.0,93,43,3.47,US,1607567868
406,winnemucca,40.97,-117.74,28.4,58,1,4.7,US,1607567928
407,talaya,61.38,152.75,-9.18,88,100,1.05,RU,1607567928
408,arrigorriaga,43.21,-2.89,54.0,81,75,12.75,ES,1607567928
409,mae chan,20.15,99.85,71.01,88,59,1.12,TH,1607567929
410,genhe,50.78,121.52,2.86,89,100,4.5,CN,1607567929
411,usevya,-7.1,31.23,65.25,91,82,1.83,TZ,1607567929
412,talnakh,69.49,88.4,-16.6,68,33,15.66,RU,1607567929
413,port hedland,-20.32,118.57,86.0,66,90,12.75,AU,1607567930
414,kurilsk,45.23,147.88,35.89,81,92,17.94,RU,1607567930
415,sungurlu,40.17,34.37,38.62,74,0,3.06,TR,1607567930
416,lagoa,39.05,-27.98,63.01,91,100,23.4,PT,1607567930
417,at-bashi,41.17,75.81,14.16,80,99,0.45,KG,1607567930
418,miraflores,19.22,-98.81,66.2,32,90,4.7,MX,1607567931
419,asandh,29.52,76.6,64.36,51,0,6.6,IN,1607567931
420,da lat,11.95,108.44,71.87,73,98,5.28,VN,1607567911
421,eskisehir,39.78,30.52,37.4,93,0,8.05,TR,1607567931
422,palana,59.12,159.97,14.36,96,100,3.22,RU,1607567931
423,sechura,-5.56,-80.82,70.11,75,78,10.67,PE,1607567932
424,galesong,-5.32,119.37,87.8,62,20,4.7,ID,1607567932
425,inta,66.03,60.17,20.91,97,98,15.46,RU,1607567932
426,vrangel,42.73,133.08,34.68,81,0,4.36,RU,1607567932
427,oktyabrskoye,43.06,44.74,30.2,86,100,2.24,RU,1607567932
428,carmo do rio verde,-15.35,-49.71,68.09,89,100,2.82,BR,1607567933
429,santa cruz cabralia,-16.28,-39.02,75.2,83,20,6.93,BR,1607567735
430,uray,60.12,64.78,14.31,96,30,7.11,RU,1607567933
431,kampong cham,11.99,105.46,82.26,65,38,9.31,KH,1607567933
432,pital,2.27,-75.8,66.72,80,73,2.13,CO,1607567934
433,seymchan,62.88,152.43,-16.96,86,100,1.03,RU,1607567934
434,whitefish,48.41,-114.34,39.2,69,90,3.36,US,1607567896
435,abha,18.22,42.51,50.0,52,0,1.83,SA,1607567935
436,harper,4.38,-7.72,78.67,83,92,6.46,LR,1607567935
437,necochea,-38.55,-58.74,53.01,82,0,6.8,AR,1607567935
438,sandnessjoen,66.02,12.63,42.8,88,75,18.34,NO,1607567935
439,deputatskiy,69.3,139.9,-33.41,84,37,2.24,RU,1607567935
440,verkhnevilyuysk,63.45,120.32,-36.27,82,74,2.37,RU,1607567935
441,arkhara,49.42,130.08,10.69,91,83,3.67,RU,1607567936
442,talara,-4.58,-81.27,68.0,85,76,11.43,PE,1607567734
443,kosh-agach,50.0,88.67,-8.27,87,100,1.3,RU,1607567936
444,kumluca,36.37,30.29,57.0,67,6,6.38,TR,1607567937
445,pervomayskiy,53.25,40.29,18.05,87,0,7.76,RU,1607567937
446,krasnyy yar,46.53,48.35,14.0,85,0,2.24,RU,1607567937
447,kununurra,-15.77,128.73,91.4,63,40,6.93,AU,1607567937
448,santa rosa,14.31,121.11,78.8,94,90,2.24,PH,1607567937
449,trelew,-43.25,-65.31,59.2,57,0,11.16,AR,1607567938
450,takoradi,4.88,-1.76,78.26,87,16,7.76,GH,1607567938
451,bilma,18.69,12.92,70.54,22,38,6.53,NE,1607567938
452,paredon,16.03,-93.87,72.54,62,1,15.5,MX,1607567998
453,millerovo,48.92,40.4,18.97,89,22,12.77,RU,1607567999
454,awka,6.21,7.07,78.8,83,100,2.24,NG,1607567999
455,shubarshi,48.59,57.19,11.21,95,4,2.91,KZ,1607567999
456,erzin,36.96,36.2,46.4,100,0,3.29,TR,1607567999
457,wadi musa,30.32,35.48,44.01,84,0,6.46,JO,1607567889
458,oranjemund,-28.55,16.43,60.33,93,71,2.51,NA,1607568000
459,saint-prosper,46.21,-70.48,24.8,92,99,2.24,CA,1607568000
460,ano mera,37.45,25.4,62.6,72,50,16.11,GR,1607568000
461,svetlyy,54.67,20.13,28.4,74,75,11.18,RU,1607568001
462,miri,4.41,114.01,86.0,74,40,10.29,MY,1607568002
463,san quintin,30.48,-115.95,59.65,83,99,8.5,MX,1607567844
464,valparaiso,-33.04,-71.63,57.2,87,0,8.05,CL,1607568003
465,touros,-5.2,-35.46,77.0,88,40,5.82,BR,1607567902
466,akyab,20.15,92.9,71.64,62,1,5.57,MM,1607568004
467,guadalajara,20.67,-103.33,68.0,45,40,1.52,MX,1607567805
468,sorong,-0.88,131.25,86.13,69,31,7.23,ID,1607567804
469,ambulu,-8.35,113.61,86.67,67,40,5.48,ID,1607568004
470,naryan-mar,67.67,53.09,16.57,96,77,16.28,RU,1607568005
471,edd,13.93,41.69,76.24,67,0,5.64,ER,1607568005
472,valleyview,55.07,-117.29,24.8,73,68,4.7,CA,1607568005
473,oistins,13.07,-59.53,78.8,78,40,11.41,BB,1607568006
474,yarkovo,57.4,67.08,14.38,97,63,6.67,RU,1607568007
475,mazagao,-0.12,-51.29,77.0,100,40,2.24,BR,1607567912
476,comodoro rivadavia,-45.87,-67.5,59.0,67,0,6.93,AR,1607568007
477,girne,35.34,33.32,51.8,87,20,4.7,CY,1607568008
478,roald,62.58,6.13,41.0,60,8,13.87,NO,1607568008
479,misratah,32.38,15.09,58.26,52,56,19.46,LY,1607568008
480,harlingen,26.19,-97.7,63.0,76,1,9.17,US,1607568008
481,westport,41.14,-73.36,35.6,74,90,10.29,US,1607567988
482,bayan,46.08,127.4,10.24,92,85,7.76,CN,1607568009
483,loukhi,66.08,33.04,27.05,96,86,9.62,RU,1607568009
484,yanaul,56.27,54.93,8.89,92,0,4.52,RU,1607568009
485,kankan,10.39,-9.31,71.96,33,0,2.1,GN,1607567966
486,dubbo,-32.25,148.62,86.0,17,42,9.17,AU,1607568010
487,rocha,-34.48,-54.33,62.89,89,0,8.3,UY,1607568010
488,tilichiki,60.47,166.1,13.59,97,100,11.88,RU,1607567799
489,buchanan,5.88,-10.05,79.12,83,75,4.74,LR,1607567820
490,aracaju,-10.91,-37.07,78.8,83,20,10.29,BR,1607567824
491,kruisfontein,-34.0,24.73,63.0,97,100,1.99,ZA,1607568010
492,rocky mountain house,52.37,-114.92,19.4,92,0,2.24,CA,1607568011
493,yavoriv,49.94,23.38,28.4,92,90,13.42,UA,1607568011
494,siniscola,40.57,9.69,48.2,70,0,23.04,IT,1607568011
495,te anau,-45.42,167.72,63.1,53,92,8.41,NZ,1607568011
496,kamina,-8.74,24.99,64.26,98,100,3.09,CD,1607568012
497,slave lake,55.28,-114.77,32.0,93,90,4.7,CA,1607567800
498,penticton,49.48,-119.59,37.4,93,90,5.82,CA,1607568012
499,liku,-0.73,119.89,85.98,67,90,3.02,ID,1607568072
500,beringovskiy,63.05,179.32,19.81,95,78,3.42,RU,1607567896
501,matucana,-11.85,-76.4,60.85,60,95,3.85,PE,1607568072
502,hualmay,-11.1,-77.61,66.88,85,100,8.95,PE,1607568073
503,vila franca do campo,37.72,-25.43,60.8,93,75,10.29,PT,1607567917
504,enshi,30.3,109.48,51.48,67,86,1.54,CN,1607568073
505,oxford,51.75,-1.26,44.6,81,96,14.99,GB,1607567808
506,niimi,34.98,133.47,51.8,66,75,3.36,JP,1607568073
507,ajaccio,42.0,8.92,42.8,93,75,4.7,FR,1607568074
508,bachaquero,9.97,-71.15,78.76,85,78,5.32,VE,1607568074
509,inza,53.85,46.36,14.83,89,0,4.38,RU,1607568074
510,vostok,46.49,135.88,18.41,95,90,3.6,RU,1607568074
511,minuri,16.54,121.86,79.72,79,83,0.58,PH,1607568074
512,rabat,33.99,-6.84,55.99,100,75,4.34,MA,1607568074
513,troitskoye,52.98,84.68,5.25,95,100,7.7,RU,1607568075
514,tabuk,17.42,121.44,83.07,70,0,2.75,PH,1607568075
515,mayumba,-3.43,10.66,75.74,89,90,1.34,GA,1607568075
516,fengcheng,40.45,124.07,36.27,71,0,3.94,CN,1607568075
517,castrovillari,39.82,16.21,50.0,80,87,5.01,IT,1607568075
518,belyy yar,53.6,91.39,1.4,84,100,4.47,RU,1607568075
519,orlik,52.52,99.83,-16.17,77,23,2.8,RU,1607568076
520,waingapu,-9.66,120.26,85.59,70,100,11.61,ID,1607568076
521,atambua,-9.11,124.89,86.11,59,100,5.79,ID,1607567923
522,shipitsyno,61.28,46.52,18.34,90,1,4.74,RU,1607568076
523,chokurdakh,70.63,147.92,-18.94,89,100,3.6,RU,1607568076
524,urubamba,-13.3,-72.12,58.24,62,100,2.19,PE,1607568077
525,sao filipe,14.9,-24.5,74.8,71,100,10.49,CV,1607567803
526,shanghai,31.22,121.46,60.01,71,40,4.47,CN,1607568016
527,tsabong,-26.02,22.4,72.16,30,1,7.81,BW,1607568077
528,margate,51.38,1.39,44.01,84,100,5.01,GB,1607568077
529,salalah,17.02,54.09,71.6,26,0,14.99,OM,1607568078
530,kaeng khoi,14.59,101.0,80.01,68,2,6.35,TH,1607568078
531,saint-francois,46.42,3.91,39.0,93,90,3.36,FR,1607568078
532,manyana,-23.4,21.72,74.48,56,0,9.01,BW,1607568078
533,casa nova,-9.42,-41.13,75.2,69,0,3.36,BR,1607568079
534,san nicolas,18.17,120.6,86.0,74,75,4.7,PH,1607568079
535,sakakah,29.97,40.21,51.8,66,0,5.68,SA,1607568079
536,biak,-0.91,122.88,81.14,79,75,12.53,ID,1607568079
537,beidao,34.57,105.89,36.82,73,77,1.05,CN,1607568080
538,pordim,43.38,24.85,33.8,92,100,2.24,BG,1607568080
539,namibe,-15.2,12.15,64.6,79,79,7.87,AO,1607568080
540,borskoye,53.03,51.72,10.08,88,0,4.99,RU,1607568081
541,babai,22.7,77.93,69.06,47,19,3.53,IN,1607568081
542,iisalmi,63.56,27.19,24.8,85,90,9.17,FI,1607568081
543,tsaratanana,-16.78,47.65,74.75,80,98,0.92,MG,1607568081
544,jijiga,9.35,42.8,54.09,47,45,8.23,ET,1607568081
545,gold coast,-28.0,153.43,82.99,57,82,12.75,AU,1607567898
546,sorland,67.67,12.69,41.97,86,100,15.66,NO,1607568142
547,kayerkan,69.35,87.76,-16.6,68,40,15.66,RU,1607568142
548,tazovskiy,67.47,78.7,-11.72,90,63,9.78,RU,1607567922
549,nouadhibou,20.93,-17.03,62.6,77,0,20.8,MR,1607568084
550,reynosa,26.08,-98.28,64.99,51,1,6.93,MX,1607568083
551,nantucket,41.28,-70.1,37.4,86,90,6.93,US,1607568143
552,harrogate,53.99,-1.54,39.0,100,100,4.7,GB,1607568143
553,bosaso,11.28,49.18,76.46,68,23,10.63,SO,1607567849
554,pasighat,28.07,95.33,69.39,50,0,1.7,IN,1607568143
555,seabra,-12.42,-41.77,66.13,82,65,0.76,BR,1607568143
556,manzanillo,20.34,-77.12,64.81,70,19,9.51,CU,1607568143
557,zapolyarnyy,69.42,30.81,30.2,86,97,39.15,RU,1607568144
558,araouane,18.9,-3.53,63.01,25,61,10.78,ML,1607568144
559,tual,-5.67,132.75,84.58,71,78,7.09,ID,1607568144
560,ryotsu,38.08,138.43,48.2,66,75,10.29,JP,1607568145
561,tutoia,-2.76,-42.27,80.58,78,100,12.75,BR,1607568145
562,koungou,-12.73,45.2,77.0,88,0,1.12,YT,1607568145
563,coquimbo,-29.95,-71.34,57.2,87,26,4.7,CL,1607568145
564,nabire,-3.37,135.48,87.42,60,85,5.26,ID,1607568145
565,jiexiu,37.02,111.91,34.59,73,97,6.02,CN,1607568146
566,la gomera,14.08,-91.05,61.0,78,0,1.99,GT,1607568146
567,komsomolskiy,40.43,71.72,33.8,86,89,1.43,UZ,1607568146
568,fez,34.04,-5.0,51.8,87,0,6.93,MA,1607568146
569,yanam,16.73,82.22,71.6,83,20,6.93,IN,1607568146
570,faya,18.39,42.45,50.0,52,0,1.66,SA,1607567914
571,bogovarovo,58.98,47.02,14.61,87,0,1.77,RU,1607568147
572,fort nelson,58.81,-122.7,10.4,92,75,2.24,CA,1607568147
573,asau,46.43,26.4,30.99,11,100,3.36,RO,1607568147
574,sakaiminato,35.55,133.23,51.8,71,75,4.7,JP,1607568147
575,pundaguitan,6.37,126.17,84.18,71,62,6.15,PH,1607568148
576,muros,42.78,-9.06,59.0,94,100,1.01,ES,1607568148
577,tucumcari,35.17,-103.72,42.8,33,1,6.93,US,1607568148
578,ostrovnoy,68.05,39.51,24.62,95,49,26.04,RU,1607568148
579,nyurba,63.28,118.33,-35.01,82,95,1.79,RU,1607568148
580,puerto escondido,15.85,-97.07,77.0,78,20,3.36,MX,1607568149
581,bonthe,7.53,-12.51,78.96,87,0,4.76,SL,1607568149
582,brae,60.4,-1.35,46.4,75,96,23.04,GB,1607568149
583,prainha,-1.8,-53.48,74.8,91,12,2.98,BR,1607568150
584,zagreb,45.81,15.98,35.01,86,90,6.93,HR,1607568150
585,zhigansk,66.77,123.37,-37.79,81,38,1.28,RU,1607568150
586,syamzha,60.02,41.06,14.9,90,0,5.14,RU,1607568150
587,korla,41.76,86.15,26.35,87,0,0.6,CN,1607568150
588,la esperanza,14.87,-91.57,64.0,17,21,3.96,GT,1607568150
589,quatre cocos,-20.21,57.76,77.0,88,75,11.41,MU,1607567902
590,batemans bay,-35.72,150.18,68.0,72,51,4.0,AU,1607568211
591,raudeberg,61.99,5.14,44.6,56,2,16.11,NO,1607568211
